{
  "id": "ils-regensburg-tisch-regensburg-alpha-version",
  "name": "ILS Regensburg Tisch Regensburg (Alpha-Version)",
  "weather": "Leichter Regen, 12 C",
  "mapCenter": [
    49.06059468909428,
    12.30125427246094
  ],
  "zoom": 11,
  "stations": [
    {
      "id": "rkt-rettungswache-regensburg-west",
      "label": "RKT Rettungswache Regensburg-West",
      "address": "RKT Ziegetsdorf",
      "lat": 49.002399,
      "lng": 12.06103,
      "vehicles": {
        "RTW": 1
      },
      "units": [
        {
          "id": "rtw-rettung-regensburg-71-1-1779106723937",
          "type": "RTW",
          "name": "Rettung Regensburg 71/1",
          "fullName": "Rettung Regensburg 71/1",
          "shortName": "RT R 71/1",
          "shift": "7-19, 19-7"
        }
      ]
    },
    {
      "id": "johanniter-stellplatz-haslbach",
      "label": "Johanniter Stellplatz Haslbach",
      "address": "Johanniter Haslbach",
      "lat": 49.055772,
      "lng": 12.129532,
      "vehicles": {
        "KTW": 1,
        "RTW": 1
      },
      "units": [
        {
          "id": "ktw-akkon-regensburg-72-1-1779106932123",
          "type": "KTW",
          "name": "Akkon Regensburg 72/1",
          "fullName": "Akkon Regensburg 72/1",
          "shortName": "AK R 72/1",
          "shift": "0-7, 7-15:30"
        },
        {
          "id": "rtw-akkon-regensburg-71-1-1779106964046",
          "type": "RTW",
          "name": "Akkon Regensburg 71/1",
          "fullName": "Akkon Regensburg 71/1",
          "shortName": "AK R 71/1",
          "shift": "7-16, 16-24"
        }
      ]
    },
    {
      "id": "malteser-stellplatz-bruderw-hrdstra-e",
      "label": "Malteser Stellplatz Bruderwöhrdstraße",
      "address": "Malteser Bruderwöhrd",
      "lat": 49.01816,
      "lng": 12.11485,
      "foreign": false,
      "vehicles": {
        "RTW": 1,
        "KTW": 1,
        "REF": 1
      },
      "units": [
        {
          "id": "rtw-johannes-regensburg-71-1-1779107021065",
          "type": "RTW",
          "name": "Johannes Regensburg 71/1",
          "fullName": "Johannes Regensburg 71/1",
          "shortName": "JH R 71/1",
          "shift": "7-15, 15-23, 23-7"
        },
        {
          "id": "ktw-johannes-regensburg-72-1-1779107039599",
          "type": "KTW",
          "name": "Johannes Regensburg 72/1",
          "fullName": "Johannes Regensburg 72/1",
          "shortName": "JH R 72/1",
          "shift": "10:30-19"
        },
        {
          "id": "ref-johannes-regensburg-74-1-1779107600947",
          "type": "REF",
          "name": "Johannes Regensburg 74/1",
          "fullName": "Johannes Regensburg 74/1",
          "shortName": "JH R 74/1",
          "shift": "10-18:30"
        }
      ],
      "foreignAvailabilityProbability": 0.5
    },
    {
      "id": "brk-rettungswache-regensburg-hrw",
      "label": "BRK Rettungswache Regensburg (HRW)",
      "address": "eigener Kartenpunkt",
      "lat": 49.013405,
      "lng": 12.134657,
      "vehicles": {
        "RTW": 3,
        "KTW": 7,
        "REF": 1
      },
      "units": [
        {
          "id": "rtw-rotkreuz-regensburg-71-1-1779107132334",
          "type": "RTW",
          "name": "Rotkreuz Regensburg 71/1",
          "fullName": "Rotkreuz Regensburg 71/1",
          "shortName": "RK R 71/1",
          "shift": "7-15, 15-23, 23-7"
        },
        {
          "id": "rtw-rotkreuz-regensburg-71-2-1779107170970",
          "type": "RTW",
          "name": "Rotkreuz Regensburg 71/2",
          "fullName": "Rotkreuz Regensburg 71/2",
          "shortName": "RK R 71/2",
          "shift": "8-15, 15-22"
        },
        {
          "id": "rtw-rotkreuz-regensburg-71-3-1779107187915",
          "type": "RTW",
          "name": "Rotkreuz Regensburg 71/3",
          "fullName": "Rotkreuz Regensburg 71/3",
          "shortName": "RK R 71/3",
          "shift": "9-16, 16-23"
        },
        {
          "id": "ktw-rotkreuz-regensburg-72-1-1779107215982",
          "type": "KTW",
          "name": "Rotkreuz Regensburg 72/1",
          "fullName": "Rotkreuz Regensburg 72/1",
          "shortName": "RK R 72/1",
          "shift": "6:30-15, 15:30-0"
        },
        {
          "id": "ktw-rotkreuz-regensburg-72-2-1779107295568",
          "type": "KTW",
          "name": "Rotkreuz Regensburg 72/2",
          "fullName": "Rotkreuz Regensburg 72/2",
          "shortName": "RK R 72/2",
          "shift": "8-16:30"
        },
        {
          "id": "ktw-rotkreuz-regensburg-72-3-1779107310111",
          "type": "KTW",
          "name": "Rotkreuz Regensburg 72/3",
          "fullName": "Rotkreuz Regensburg 72/3",
          "shortName": "RK R 72/3",
          "shift": "9-17:30"
        },
        {
          "id": "ktw-rotkreuz-regensburg-72-4-1779107327901",
          "type": "KTW",
          "name": "Rotkreuz Regensburg 72/4",
          "fullName": "Rotkreuz Regensburg 72/4",
          "shortName": "RK R 72/4",
          "shift": "9:30-18"
        },
        {
          "id": "ktw-rotkreuz-regensburg-72-5-1779107350421",
          "type": "KTW",
          "name": "Rotkreuz Regensburg 72/5",
          "fullName": "Rotkreuz Regensburg 72/5",
          "shortName": "RK R 72/5",
          "shift": "10-18:30"
        },
        {
          "id": "ktw-rotkreuz-regensburg-72-6-1779107383496",
          "type": "KTW",
          "name": "Rotkreuz Regensburg 72/6",
          "fullName": "Rotkreuz Regensburg 72/6",
          "shortName": "RK R 72/6",
          "shift": "10-18:30"
        },
        {
          "id": "ktw-rotkreuz-regensburg-72-7-1779107403498",
          "type": "KTW",
          "name": "Rotkreuz Regensburg 72/7",
          "fullName": "Rotkreuz Regensburg 72/7",
          "shortName": "RK R 72/7",
          "shift": "15:30-0"
        },
        {
          "id": "ref-rotkreuz-regensburg-74-1-1779107712274",
          "type": "REF",
          "name": "Rotkreuz Regensburg 74/1",
          "fullName": "Rotkreuz Regensburg 74/1",
          "shortName": "RK R 74/1",
          "shift": "8:30-17"
        }
      ]
    },
    {
      "id": "brk-stellplatz-na-barmherzige-br-der",
      "label": "BRK Stellplatz NA Barmherzige Brüder",
      "address": "Barmherzige brüder",
      "lat": 49.015279,
      "lng": 12.0667,
      "vehicles": {
        "NEF": 1
      },
      "units": [
        {
          "id": "nef-rotkreuz-76-1-1779107480560",
          "type": "NEF",
          "name": "Rotkreuz 76/1",
          "fullName": "Rotkreuz 76/1",
          "shortName": "RK R 76/1",
          "shift": "7-19, 19-7"
        }
      ]
    },
    {
      "id": "johanniter-malteser-stellplatz-na-ukr",
      "label": "Johanniter/Malteser Stellplatz NA UKR",
      "address": "UKR",
      "lat": 48.987761,
      "lng": 12.092071,
      "foreign": false,
      "vehicles": {
        "NEF": 1
      },
      "units": [
        {
          "id": "nef-johannes-regensburg-76-1-1779107551561",
          "type": "NEF",
          "name": "Johannes Regensburg 76/1",
          "fullName": "Johannes Regensburg 76/1",
          "shortName": "JH R 76/1",
          "shift": "7-19, 19-7"
        }
      ],
      "foreignAvailabilityProbability": 0.5
    },
    {
      "id": "rkt-stellplatz-obertraubling",
      "label": "RKT Stellplatz Obertraubling",
      "address": "palasia",
      "lat": 48.971955,
      "lng": 12.173916,
      "vehicles": {
        "RTW": 1
      },
      "units": [
        {
          "id": "rtw-rettung-regensburg-71-4-1779107691142",
          "type": "RTW",
          "name": "Rettung Regensburg 71/4",
          "fullName": "Rettung Regensburg 71/4",
          "shortName": "RT R 71/4",
          "shift": "6-15, 15-0"
        }
      ]
    },
    {
      "id": "rkt-rettungswache-alteglofsheim",
      "label": "RKT Rettungswache Alteglofsheim",
      "address": "am ziegelfeld 6",
      "lat": 48.923148,
      "lng": 12.21041,
      "vehicles": {
        "RTW": 1
      },
      "units": [
        {
          "id": "rtw-rettung-regensburg-71-2-1779107787969",
          "type": "RTW",
          "name": "Rettung Regensburg 71/2",
          "fullName": "Rettung Regensburg 71/2",
          "shortName": "RT R 71/2",
          "shift": "7-19, 19-7"
        }
      ]
    },
    {
      "id": "brk-rettungswache-w-rth-an-der-donau",
      "label": "BRK Rettungswache Wörth an der Donau",
      "address": "eigener Kartenpunkt",
      "lat": 48.996673,
      "lng": 12.390207,
      "vehicles": {
        "RTW": 1,
        "NEF": 2
      },
      "units": [
        {
          "id": "rtw-rotkreuz-regensburg-71-4-1779107839871",
          "type": "RTW",
          "name": "Rotkreuz Regensburg 71/4",
          "fullName": "Rotkreuz Regensburg 71/4",
          "shortName": "RK R 71/4",
          "shift": "7-19, 19-7"
        },
        {
          "id": "nef-rotkreuz-regensburg-76-2-1779107859944",
          "type": "NEF",
          "name": "Rotkreuz Regensburg 76/2",
          "fullName": "Rotkreuz Regensburg 76/2",
          "shortName": "RK R 76/2",
          "shift": "7-19, 19-7"
        },
        {
          "id": "nef-rotkreuz-regensburg-72-9-1779107982778",
          "type": "NEF",
          "name": "Rotkreuz Regensburg 72/9",
          "fullName": "Rotkreuz Regensburg 72/9",
          "shortName": "RK R 72/9",
          "shift": "9-17:30"
        }
      ]
    },
    {
      "id": "brk-rettungswache-regenstauf",
      "label": "BRK Rettungswache Regenstauf",
      "address": "Dr.-Pfannenstiel-Straße 5",
      "lat": 49.109337,
      "lng": 12.123208,
      "vehicles": {
        "RTW": 1,
        "KTW": 1,
        "NEF": 1
      },
      "units": [
        {
          "id": "rtw-rotkreuz-regensburg-71-5-1779107913489",
          "type": "RTW",
          "name": "Rotkreuz Regensburg 71/5",
          "fullName": "Rotkreuz Regensburg 71/5",
          "shortName": "RK R 71/5",
          "shift": "7-19, 19-7"
        },
        {
          "id": "ktw-rotkreuz-regensburg-72-8-1779107941418",
          "type": "KTW",
          "name": "Rotkreuz Regensburg 72/8",
          "fullName": "Rotkreuz Regensburg 72/8",
          "shortName": "RK R 72/8",
          "shift": "7-16"
        },
        {
          "id": "nef-rotkreuz-regensburg-76-3-1779107954951",
          "type": "NEF",
          "name": "Rotkreuz Regensburg 76/3",
          "fullName": "Rotkreuz Regensburg 76/3",
          "shortName": "RK R 76/3",
          "shift": "7-19, 19-7"
        }
      ]
    },
    {
      "id": "brk-rettungswache-hemau",
      "label": "BRK Rettungswache Hemau",
      "address": "wittelsbacher straße 8a hemau",
      "lat": 49.056608,
      "lng": 11.779727,
      "vehicles": {
        "RTW": 1,
        "NEF": 1,
        "KTW": 1
      },
      "units": [
        {
          "id": "rtw-rotkreuz-regensburg-71-6-1779108026722",
          "type": "RTW",
          "name": "Rotkreuz Regensburg 71/6",
          "fullName": "Rotkreuz Regensburg 71/6",
          "shortName": "RK R 71/6",
          "shift": "7-19, 19-7"
        },
        {
          "id": "nef-rotkreuz-regensburg-76-4-1779108040908",
          "type": "NEF",
          "name": "Rotkreuz Regensburg 76/4",
          "fullName": "Rotkreuz Regensburg 76/4",
          "shortName": "RK R 76/4",
          "shift": "7-19, 19-7"
        },
        {
          "id": "ktw-rotkreuz-regensburg-72-9-1779108061823",
          "type": "KTW",
          "name": "Rotkreuz Regensburg 72/9",
          "fullName": "Rotkreuz Regensburg 72/9",
          "shortName": "RK R 72/9",
          "shift": "8:30-17"
        }
      ]
    },
    {
      "id": "brk-stellplatz-nittendorf",
      "label": "BRK Stellplatz Nittendorf",
      "address": "eigener Kartenpunkt",
      "lat": 49.02984,
      "lng": 11.966659,
      "vehicles": {
        "RTW": 1
      },
      "units": [
        {
          "id": "rtw-rotkreuz-regensburg-71-7-1779108110459",
          "type": "RTW",
          "name": "Rotkreuz Regensburg 71/7",
          "fullName": "Rotkreuz Regensburg 71/7",
          "shortName": "RK R 71/7",
          "shift": "6-15, 15-24"
        }
      ]
    },
    {
      "id": "brk-stellplatz-waltenhofen",
      "label": "BRK Stellplatz Waltenhofen",
      "address": "waltenhofen 17",
      "lat": 49.034795,
      "lng": 11.671188,
      "vehicles": {
        "RTW": 1
      },
      "units": [
        {
          "id": "rtw-rotkreuz-regensburg-71-8-1779108185422",
          "type": "RTW",
          "name": "Rotkreuz Regensburg 71/8",
          "fullName": "Rotkreuz Regensburg 71/8",
          "shortName": "RK R 71/8",
          "shift": "7-19"
        }
      ]
    },
    {
      "id": "drf-luftrettungsstation-ukr",
      "label": "DRF Luftrettungsstation UKR",
      "address": "eigener Kartenpunkt",
      "lat": 48.986895,
      "lng": 12.092259,
      "foreign": false,
      "vehicles": {
        "RTH": 1
      },
      "units": [
        {
          "id": "rth-christoph-regensburg-1779128522686",
          "type": "RTH",
          "name": "Christoph Regensburg",
          "fullName": "Christoph Regensburg",
          "shortName": "CH Regensburg",
          "shift": "7-19, 19-7"
        }
      ],
      "foreignAvailabilityProbability": 0.5
    },
    {
      "id": "rettungswache-brk-kelheim",
      "label": "Rettungswache BRK Kelheim",
      "address": "eigener Kartenpunkt",
      "lat": 48.901683,
      "lng": 11.906425,
      "foreign": true,
      "vehicles": {
        "RTW": 1,
        "NEF": 1
      },
      "units": [
        {
          "id": "rtw-rotkreuz-kelheim-71-1-1779129138646",
          "type": "RTW",
          "name": "Rotkreuz Kelheim 71/1",
          "fullName": "Rotkreuz Kelheim 71/1",
          "shortName": "RK KEH 71/1",
          "shift": "6:30-18:30, 18:30-6:30"
        },
        {
          "id": "nef-rotkreuz-kelheim-76-1-1779129162262",
          "type": "NEF",
          "name": "Rotkreuz Kelheim 76/1",
          "fullName": "Rotkreuz Kelheim 76/1",
          "shortName": "RK KEH 76/1",
          "shift": "6:30-18:30, 18:30-6:30"
        }
      ],
      "foreignAvailabilityProbability": 0.25
    },
    {
      "id": "brk-rettungswache-langquaid",
      "label": "BRK Rettungswache Langquaid",
      "address": "eigener Kartenpunkt",
      "lat": 48.827173,
      "lng": 12.051543,
      "foreign": true,
      "vehicles": {
        "RTW": 1
      },
      "units": [
        {
          "id": "rtw-rotkreuz-langquaid-71-1-1779129293009",
          "type": "RTW",
          "name": "Rotkreuz Langquaid 71/1",
          "fullName": "Rotkreuz Langquaid 71/1",
          "shortName": "RL LQ 71/1",
          "shift": "6:30-18:30, 18:30-6:30"
        }
      ],
      "foreignAvailabilityProbability": 0.55
    },
    {
      "id": "brk-rettungswache-mallersdorf",
      "label": "BRK Rettungswache Mallersdorf",
      "address": "eigener Kartenpunkt",
      "lat": 48.779186,
      "lng": 12.250907,
      "foreign": true,
      "vehicles": {
        "RTW": 1,
        "NEF": 1
      },
      "units": [
        {
          "id": "rtw-rotkreuz-mallersdorf-71-1-1779129348145",
          "type": "RTW",
          "name": "Rotkreuz Mallersdorf 71/1",
          "fullName": "Rotkreuz Mallersdorf 71/1",
          "shortName": "RK MAL 71/1",
          "shift": "7-19, 19-7"
        },
        {
          "id": "nef-rotkreuz-mallersdorf-76-1-1779129367136",
          "type": "NEF",
          "name": "Rotkreuz Mallersdorf 76/1",
          "fullName": "Rotkreuz Mallersdorf 76/1",
          "shortName": "RK MAL 76/1",
          "shift": "7-19, 19-7"
        }
      ],
      "foreignAvailabilityProbability": 0.4
    }
  ],
  "hospitals": [
    {
      "id": "krankenhaus-bb-st-hedwig-p-diatrie",
      "label": "Krankenhaus BB St. Hedwig (Pädiatrie)",
      "address": "St hedwig",
      "lat": 49.016879,
      "lng": 12.078812,
      "departments": [
        "internal",
        "cardiology",
        "neurology",
        "trauma",
        "pediatrics",
        "icu"
      ],
      "pediatricOnly": true
    },
    {
      "id": "krankenhaus-barmherzige-br-der",
      "label": "Krankenhaus Barmherzige Brüder",
      "address": "barmherzige brüder regensburg",
      "lat": 49.015601,
      "lng": 12.063094,
      "departments": [
        "internal",
        "cardiology",
        "neurology",
        "trauma",
        "stroke",
        "icu"
      ],
      "pediatricOnly": false
    },
    {
      "id": "universit-tsklinik-regensburg",
      "label": "Universitätsklinik Regensburg",
      "address": "Uniklinik regensburg",
      "lat": 48.987636,
      "lng": 12.090497,
      "foreign": false,
      "departments": [
        "internal",
        "cardiology",
        "neurology",
        "trauma",
        "pediatrics",
        "stroke",
        "icu"
      ],
      "pediatricOnly": false
    },
    {
      "id": "bezirkskrankenhaus-regensburg-psych",
      "label": "Bezirkskrankenhaus Regensburg (Psych)",
      "address": "Bezirkskrankenhaus",
      "lat": 48.997967,
      "lng": 12.08753,
      "departments": [
        "psychiatry"
      ],
      "pediatricOnly": false
    },
    {
      "id": "bezirkskrankenhaus-regensburg-neuro",
      "label": "Bezirkskrankenhaus Regensburg (Neuro)",
      "address": "Bezirkskrankenhaus",
      "lat": 48.997967,
      "lng": 12.08753,
      "departments": [
        "neurology",
        "stroke",
        "icu"
      ],
      "pediatricOnly": false
    },
    {
      "id": "bezirkskrankenhaus-regensburg-kinder-psych",
      "label": "Bezirkskrankenhaus Regensburg (Kinder-Psych)",
      "address": "Bezirkskrankenhaus",
      "lat": 48.997967,
      "lng": 12.08753,
      "departments": [
        "pediatrics",
        "psychiatry"
      ],
      "pediatricOnly": true
    },
    {
      "id": "krankenhaus-st-josef",
      "label": "Krankenhaus St. Josef",
      "address": "St josef krankenhaus",
      "lat": 49.006822,
      "lng": 12.119173,
      "departments": [
        "internal",
        "cardiology",
        "trauma",
        "obstetrics",
        "icu"
      ],
      "pediatricOnly": false
    },
    {
      "id": "krankenhaus-w-rth-a-d-donau",
      "label": "Krankenhaus Wörth a.d. Donau",
      "address": "Krankenhaus wörth",
      "lat": 48.998755,
      "lng": 12.398258,
      "departments": [
        "internal",
        "cardiology",
        "trauma",
        "icu"
      ],
      "pediatricOnly": false
    },
    {
      "id": "krankenhaus-st-lukas-kelheim",
      "label": "Krankenhaus St. Lukas Kelheim",
      "address": "eigener Kartenpunkt",
      "lat": 48.923208,
      "lng": 11.884933,
      "foreign": true,
      "departments": [
        "internal",
        "cardiology",
        "trauma",
        "obstetrics",
        "stroke",
        "icu"
      ],
      "pediatricOnly": false
    },
    {
      "id": "krankenhaus-mallersdorf",
      "label": "Krankenhaus Mallersdorf",
      "address": "eigener Kartenpunkt",
      "lat": 48.77815,
      "lng": 12.246695,
      "foreign": true,
      "departments": [
        "internal",
        "cardiology",
        "trauma",
        "icu"
      ],
      "pediatricOnly": false
    },
    {
      "id": "krankenhaus-barmherzige-br-der-straubing",
      "label": "Krankenhaus Barmherzige Brüder Straubing",
      "address": "eigener Kartenpunkt",
      "lat": 48.885861,
      "lng": 12.590911,
      "foreign": true,
      "departments": [
        "internal",
        "cardiology",
        "neurology",
        "trauma",
        "obstetrics",
        "stroke",
        "icu"
      ],
      "pediatricOnly": false
    },
    {
      "id": "krankenhaus-cham",
      "label": "Krankenhaus Cham",
      "address": "eigener Kartenpunkt",
      "lat": 49.227827,
      "lng": 12.658704,
      "foreign": true,
      "departments": [
        "internal",
        "cardiology",
        "neurology",
        "trauma",
        "stroke",
        "icu"
      ],
      "pediatricOnly": false
    },
    {
      "id": "krankenhaus-asklepios-burglengenfeld",
      "label": "Krankenhaus Asklepios Burglengenfeld",
      "address": "eigener Kartenpunkt",
      "lat": 49.203804,
      "lng": 12.03482,
      "foreign": true,
      "departments": [
        "internal",
        "cardiology",
        "trauma",
        "stroke",
        "icu"
      ],
      "pediatricOnly": false
    },
    {
      "id": "krankenhaus-schwandorf",
      "label": "Krankenhaus Schwandorf",
      "address": "eigener Kartenpunkt",
      "lat": 49.318025,
      "lng": 12.112059,
      "foreign": true,
      "departments": [
        "internal",
        "cardiology",
        "trauma",
        "stroke",
        "icu"
      ],
      "pediatricOnly": false
    },
    {
      "id": "krankenhaus-neumarkt",
      "label": "Krankenhaus Neumarkt",
      "address": "eigener Kartenpunkt",
      "lat": 49.285709,
      "lng": 11.452359,
      "foreign": true,
      "departments": [
        "internal",
        "cardiology",
        "neurology",
        "trauma",
        "obstetrics",
        "stroke",
        "icu"
      ],
      "pediatricOnly": false
    }
  ],
  "poi": [
    {
      "id": "osm-way-94502136",
      "label": "ACHAT Premium Regensburg",
      "address": "Im Gewerbepark D90, Regensburg",
      "lat": 49.0310678,
      "lng": 12.1283814,
      "categories": [
        "hotel"
      ],
      "source": "osm",
      "osmType": "way",
      "osmId": 94502136
    },
    {
      "id": "osm-node-9105199815",
      "label": "Adam Gawlik",
      "address": "Weintingergasse 6, Regensburg",
      "lat": 49.0214136,
      "lng": 12.0891029,
      "categories": [
        "practice"
      ],
      "source": "osm",
      "osmType": "node",
      "osmId": 9105199815
    },
    {
      "id": "osm-node-3781951451",
      "label": "Akademie für Gestaltung Regensburg",
      "address": "Andreasstraße 28, Regensburg",
      "lat": 49.024209,
      "lng": 12.1005785,
      "categories": [
        "university"
      ],
      "source": "osm",
      "osmType": "node",
      "osmId": 3781951451
    },
    {
      "id": "osm-way-112794111",
      "label": "Albert-Schweitzer Realschule / Willi-Ulfig Mittelschule",
      "address": "OSM-POI",
      "lat": 49.0323945,
      "lng": 12.1180542,
      "categories": [
        "school"
      ],
      "source": "osm",
      "osmType": "way",
      "osmId": 112794111
    },
    {
      "id": "osm-node-12944448309",
      "label": "Albertus Magnus Gymnasium Zweigstelle",
      "address": "OSM-POI",
      "lat": 49.0249712,
      "lng": 12.0761448,
      "categories": [
        "school"
      ],
      "source": "osm",
      "osmType": "node",
      "osmId": 12944448309
    },
    {
      "id": "osm-way-94917914",
      "label": "Albertus-Magnus-Gymnasium",
      "address": "Hans-Sachs-Straße 2, Regensburg",
      "lat": 49.0226437,
      "lng": 12.0753161,
      "categories": [
        "school"
      ],
      "source": "osm",
      "osmType": "way",
      "osmId": 94917914
    },
    {
      "id": "osm-way-137648631",
      "label": "Albrecht-Altdorfer-Gymnasium",
      "address": "Minoritenweg 33, Regensburg",
      "lat": 49.0173975,
      "lng": 12.1074773,
      "categories": [
        "school"
      ],
      "source": "osm",
      "osmType": "way",
      "osmId": 137648631
    },
    {
      "id": "osm-way-113661609",
      "label": "ALEX-Center",
      "address": "Hans-Hayder-Straße 2, Regensburg",
      "lat": 49.034016,
      "lng": 12.1121313,
      "categories": [
        "mall"
      ],
      "source": "osm",
      "osmType": "way",
      "osmId": 113661609
    },
    {
      "id": "osm-way-157738472",
      "label": "Allerheiligenkapelle",
      "address": "OSM-POI",
      "lat": 49.0198463,
      "lng": 12.0993207,
      "categories": [
        "church"
      ],
      "source": "osm",
      "osmType": "way",
      "osmId": 157738472
    },
    {
      "id": "osm-node-3968629184",
      "label": "Allgemeinarztpraxis Dr. med. Christoph Puchner",
      "address": "Raiffeisenstraße 5, Wenzenbach",
      "lat": 49.0708127,
      "lng": 12.1856306,
      "categories": [
        "practice"
      ],
      "source": "osm",
      "osmType": "node",
      "osmId": 3968629184
    },
    {
      "id": "osm-node-4930024422",
      "label": "Allgemeinmedizin Dr. Wolfgang. Grampp",
      "address": "Wenzenbach",
      "lat": 49.0754181,
      "lng": 12.1966401,
      "categories": [
        "practice"
      ],
      "source": "osm",
      "osmType": "node",
      "osmId": 4930024422
    },
    {
      "id": "osm-node-5318780321",
      "label": "Allgemeinmedizin im Zentrum",
      "address": "Regensburg",
      "lat": 49.0198983,
      "lng": 12.0900977,
      "categories": [
        "practice"
      ],
      "source": "osm",
      "osmType": "node",
      "osmId": 5318780321
    },
    {
      "id": "osm-node-2269401343",
      "label": "Almenrausch Grünthal",
      "address": "OSM-POI",
      "lat": 49.0516107,
      "lng": 12.1522388,
      "categories": [
        "sports-centre"
      ],
      "source": "osm",
      "osmType": "node",
      "osmId": 2269401343
    },
    {
      "id": "osm-way-28013993",
      "label": "Alte Kirche",
      "address": "Laberstraße 2, Sinzing",
      "lat": 48.9921546,
      "lng": 12.034975,
      "categories": [
        "church"
      ],
      "source": "osm",
      "osmType": "way",
      "osmId": 28013993
    },
    {
      "id": "osm-way-37254585",
      "label": "Alten-/Pflegeheim 37254585",
      "address": "OSM-POI",
      "lat": 49.0479868,
      "lng": 11.788904,
      "categories": [
        "nursing-home"
      ],
      "source": "osm",
      "osmType": "way",
      "osmId": 37254585
    },
    {
      "id": "osm-node-355194503",
      "label": "Altenlohe",
      "address": "OSM-POI",
      "lat": 49.0246653,
      "lng": 11.7258363,
      "categories": [
        "church"
      ],
      "source": "osm",
      "osmType": "node",
      "osmId": 355194503
    },
    {
      "id": "osm-way-132751600",
      "label": "Altersheim St. Josef",
      "address": "Hauptstraße 28, Mintraching",
      "lat": 48.9511766,
      "lng": 12.2415237,
      "categories": [
        "nursing-home"
      ],
      "source": "osm",
      "osmType": "way",
      "osmId": 132751600
    },
    {
      "id": "osm-node-4030323361",
      "label": "Altstadthotel Am Pach",
      "address": "Untere Bachgasse 9, Regensburg",
      "lat": 49.0190923,
      "lng": 12.0950152,
      "categories": [
        "hotel"
      ],
      "source": "osm",
      "osmType": "node",
      "osmId": 4030323361
    },
    {
      "id": "osm-node-986043897",
      "label": "Altstadthotel Arch",
      "address": "Haidplatz 2-4, Regensburg",
      "lat": 49.0194882,
      "lng": 12.0933331,
      "categories": [
        "hotel"
      ],
      "source": "osm",
      "osmType": "node",
      "osmId": 986043897
    },
    {
      "id": "osm-node-13290739569",
      "label": "Andachtsraum",
      "address": "OSM-POI",
      "lat": 49.0365405,
      "lng": 12.2078411,
      "categories": [
        "church"
      ],
      "source": "osm",
      "osmType": "node",
      "osmId": 13290739569
    },
    {
      "id": "osm-node-12751802809",
      "label": "Andachtsstätte",
      "address": "OSM-POI",
      "lat": 49.0254435,
      "lng": 11.9098339,
      "categories": [
        "church"
      ],
      "source": "osm",
      "osmType": "node",
      "osmId": 12751802809
    },
    {
      "id": "osm-node-6699380514",
      "label": "Andreas Wagner",
      "address": "Vilsgasse 61, Kallmünz",
      "lat": 49.1631194,
      "lng": 11.9481843,
      "categories": [
        "dentist"
      ],
      "source": "osm",
      "osmType": "node",
      "osmId": 6699380514
    },
    {
      "id": "osm-node-371049637",
      "label": "Arche",
      "address": "OSM-POI",
      "lat": 49.0242723,
      "lng": 11.9514302,
      "categories": [
        "church"
      ],
      "source": "osm",
      "osmType": "node",
      "osmId": 371049637
    },
    {
      "id": "osm-node-2271575183",
      "label": "Arche Noah",
      "address": "OSM-POI",
      "lat": 49.1254781,
      "lng": 12.1267121,
      "categories": [
        "kindergarten"
      ],
      "source": "osm",
      "osmType": "node",
      "osmId": 2271575183
    },
    {
      "id": "osm-way-32905570",
      "label": "Argula-von-Grumbach Haus",
      "address": "Am Marktplatz 8",
      "lat": 49.0231837,
      "lng": 11.9532392,
      "categories": [
        "nursing-home"
      ],
      "source": "osm",
      "osmType": "way",
      "osmId": 32905570
    },
    {
      "id": "osm-node-5337981170",
      "label": "Aristidis Grigorakakis",
      "address": "Isarstraße 26, Regensburg",
      "lat": 49.0335636,
      "lng": 12.1187514,
      "categories": [
        "dentist"
      ],
      "source": "osm",
      "osmType": "node",
      "osmId": 5337981170
    },
    {
      "id": "osm-way-31257899",
      "label": "Armin-Wolf-Arena",
      "address": "OSM-POI",
      "lat": 49.0259296,
      "lng": 12.1398555,
      "categories": [
        "sports-centre"
      ],
      "source": "osm",
      "osmType": "way",
      "osmId": 31257899
    },
    {
      "id": "osm-node-4729080662",
      "label": "ARTOS Gemeinschaftspraxis",
      "address": "Straubinger Straße 24, Regensburg",
      "lat": 49.0138542,
      "lng": 12.1244012,
      "categories": [
        "practice"
      ],
      "source": "osm",
      "osmType": "node",
      "osmId": 4729080662
    },
    {
      "id": "osm-node-432634159",
      "label": "Ärztehaus (Allg. Arzt, Augenarzt, Hautarzt)",
      "address": "Stadtplatz 3, Hemau",
      "lat": 49.0520567,
      "lng": 11.78284,
      "categories": [
        "practice"
      ],
      "source": "osm",
      "osmType": "node",
      "osmId": 432634159
    },
    {
      "id": "osm-node-1554701960",
      "label": "Ärztehaus West",
      "address": "OSM-POI",
      "lat": 49.009992,
      "lng": 12.0581413,
      "categories": [
        "practice"
      ],
      "source": "osm",
      "osmType": "node",
      "osmId": 1554701960
    },
    {
      "id": "osm-node-1509791896",
      "label": "Arztpraxis 1509791896",
      "address": "OSM-POI",
      "lat": 49.0175823,
      "lng": 12.1110702,
      "categories": [
        "practice"
      ],
      "source": "osm",
      "osmType": "node",
      "osmId": 1509791896
    },
    {
      "id": "osm-way-151770516",
      "label": "Arztpraxis 151770516",
      "address": "OSM-POI",
      "lat": 49.0271953,
      "lng": 11.9604102,
      "categories": [
        "practice"
      ],
      "source": "osm",
      "osmType": "way",
      "osmId": 151770516
    },
    {
      "id": "osm-node-9344239494",
      "label": "Arztpraxis 9344239494",
      "address": "OSM-POI",
      "lat": 48.8588332,
      "lng": 12.2365362,
      "categories": [
        "practice"
      ],
      "source": "osm",
      "osmType": "node",
      "osmId": 9344239494
    },
    {
      "id": "osm-node-3771726248",
      "label": "Arztpraxis Dr.Heinz & Chr.Spießl",
      "address": "Hauptstraße 89, Tegernheim",
      "lat": 49.0245412,
      "lng": 12.1722402,
      "categories": [
        "practice"
      ],
      "source": "osm",
      "osmType": "node",
      "osmId": 3771726248
    },
    {
      "id": "osm-node-2529078892",
      "label": "Arztpraxis L.Lösch",
      "address": "Falkenstraße 20, Bernhardswald",
      "lat": 49.0925643,
      "lng": 12.2533539,
      "categories": [
        "practice"
      ],
      "source": "osm",
      "osmType": "node",
      "osmId": 2529078892
    },
    {
      "id": "osm-node-6158535885",
      "label": "Augenarzt MVZ Dr. Gamringer & Kollegen",
      "address": "Regensburg",
      "lat": 49.0054168,
      "lng": 12.0862582,
      "categories": [
        "practice"
      ],
      "source": "osm",
      "osmType": "node",
      "osmId": 6158535885
    },
    {
      "id": "osm-node-9015230150",
      "label": "Augenärzte am Theater",
      "address": "OSM-POI",
      "lat": 49.0193545,
      "lng": 12.0890742,
      "categories": [
        "practice"
      ],
      "source": "osm",
      "osmType": "node",
      "osmId": 9015230150
    },
    {
      "id": "osm-way-89202951",
      "label": "Aussegnungshalle",
      "address": "Alfons-Auer-Straße 1, Regensburg",
      "lat": 49.0087937,
      "lng": 12.1052829,
      "categories": [
        "church"
      ],
      "source": "osm",
      "osmType": "way",
      "osmId": 89202951
    },
    {
      "id": "osm-way-163032852",
      "label": "Aussenwohngruppe",
      "address": "Albert-Schweitzer-Straße 3, Bernhardswald",
      "lat": 49.0940914,
      "lng": 12.2573666,
      "categories": [
        "nursing-home"
      ],
      "source": "osm",
      "osmType": "way",
      "osmId": 163032852
    },
    {
      "id": "osm-way-100540107",
      "label": "AWG",
      "address": "Eichelloheweg 8",
      "lat": 49.0588482,
      "lng": 11.7868343,
      "categories": [
        "school"
      ],
      "source": "osm",
      "osmType": "way",
      "osmId": 100540107
    },
    {
      "id": "osm-way-99476994",
      "label": "AWO Seniorenzentrum Carl Lappy",
      "address": "Brennesstraße 2, Regensburg",
      "lat": 49.0305427,
      "lng": 12.1093176,
      "categories": [
        "nursing-home"
      ],
      "source": "osm",
      "osmType": "way",
      "osmId": 99476994
    },
    {
      "id": "osm-way-99721391",
      "label": "B&B Hotel Regensburg",
      "address": "Landshuter Straße 111, Regensburg",
      "lat": 49.0017974,
      "lng": 12.1270182,
      "categories": [
        "hotel"
      ],
      "source": "osm",
      "osmType": "way",
      "osmId": 99721391
    },
    {
      "id": "osm-way-127805124",
      "label": "Badmintoncenter Grünthal",
      "address": "OSM-POI",
      "lat": 49.0507739,
      "lng": 12.1517541,
      "categories": [
        "sports-centre"
      ],
      "source": "osm",
      "osmType": "way",
      "osmId": 127805124
    },
    {
      "id": "osm-node-1923745332",
      "label": "Bartlhof",
      "address": "OSM-POI",
      "lat": 49.148141,
      "lng": 11.9957984,
      "categories": [
        "hotel"
      ],
      "source": "osm",
      "osmType": "node",
      "osmId": 1923745332
    },
    {
      "id": "osm-way-93944032",
      "label": "Basilika St. Emmeram",
      "address": "Emmeramsplatz 4, Regensburg",
      "lat": 49.0153701,
      "lng": 12.0929116,
      "categories": [
        "church"
      ],
      "source": "osm",
      "osmType": "way",
      "osmId": 93944032
    },
    {
      "id": "osm-node-301407704",
      "label": "Benefizium St. Nikola",
      "address": "OSM-POI",
      "lat": 48.8348729,
      "lng": 12.1389041,
      "categories": [
        "church"
      ],
      "source": "osm",
      "osmType": "node",
      "osmId": 301407704
    },
    {
      "id": "osm-node-10303183348",
      "label": "Beratzhausen",
      "address": "OSM-POI",
      "lat": 49.0928528,
      "lng": 11.807868,
      "categories": [
        "railway-station"
      ],
      "source": "osm",
      "osmType": "node",
      "osmId": 10303183348
    },
    {
      "id": "osm-node-11073467092",
      "label": "Bereitschaftspraxis Regensburg",
      "address": "Hildegard-von-Bingen-Straße, Regensburg",
      "lat": 49.0064421,
      "lng": 12.119583,
      "categories": [
        "practice"
      ],
      "source": "osm",
      "osmType": "node",
      "osmId": 11073467092
    },
    {
      "id": "osm-node-7175577831",
      "label": "Berterini Kirche",
      "address": "OSM-POI",
      "lat": 49.012327,
      "lng": 12.1090497,
      "categories": [
        "church"
      ],
      "source": "osm",
      "osmType": "node",
      "osmId": 7175577831
    },
    {
      "id": "osm-node-3969291969",
      "label": "Berufsfachschule für Altenpflege des Berufsfortbildungswerks",
      "address": "Von-der-Tann-Straße 30, Regensburg",
      "lat": 49.0164067,
      "lng": 12.1059957,
      "categories": [
        "school"
      ],
      "source": "osm",
      "osmType": "node",
      "osmId": 3969291969
    },
    {
      "id": "osm-node-3633555938",
      "label": "Berufsfachschule für Gesundheits- und Krankenpflege",
      "address": "Landshuter Straße 65, Regensburg",
      "lat": 49.0066864,
      "lng": 12.1180925,
      "categories": [
        "university"
      ],
      "source": "osm",
      "osmType": "node",
      "osmId": 3633555938
    },
    {
      "id": "osm-node-3880848305",
      "label": "Berufsfachschule für Krankenpflegehilfe",
      "address": "Alte Manggasse 3, Regensburg",
      "lat": 49.0167875,
      "lng": 12.0941082,
      "categories": [
        "university"
      ],
      "source": "osm",
      "osmType": "node",
      "osmId": 3880848305
    },
    {
      "id": "osm-way-129023864",
      "label": "Berufsförderungswerk I",
      "address": "OSM-POI",
      "lat": 49.113872,
      "lng": 12.1356175,
      "categories": [
        "school"
      ],
      "source": "osm",
      "osmType": "way",
      "osmId": 129023864
    },
    {
      "id": "osm-way-100526142",
      "label": "Berufsoberschule Wirtschaft",
      "address": "Sankt-Peters-Weg 17, Regensburg",
      "lat": 49.0154721,
      "lng": 12.0974348,
      "categories": [
        "school"
      ],
      "source": "osm",
      "osmType": "way",
      "osmId": 100526142
    },
    {
      "id": "osm-node-410593643",
      "label": "Best Western Premier",
      "address": "Ziegetsdorfer Straße 111, Regensburg",
      "lat": 49.0095909,
      "lng": 12.0575399,
      "categories": [
        "hotel"
      ],
      "source": "osm",
      "osmType": "node",
      "osmId": 410593643
    },
    {
      "id": "osm-way-124793859",
      "label": "Bezirkssportanlage am Weinweg",
      "address": "OSM-POI",
      "lat": 49.0291005,
      "lng": 12.0620763,
      "categories": [
        "sports-centre"
      ],
      "source": "osm",
      "osmType": "way",
      "osmId": 124793859
    },
    {
      "id": "osm-node-3741473341",
      "label": "bfz Regensburg",
      "address": "Donaustaufer Straße 115, Regensburg",
      "lat": 49.0293071,
      "lng": 12.1193032,
      "categories": [
        "school"
      ],
      "source": "osm",
      "osmType": "node",
      "osmId": 3741473341
    },
    {
      "id": "osm-node-3899779720",
      "label": "Bildungszentrum Ostbayern im Kolpinghaus Regensburg",
      "address": "Adolph-Kolping-Straße 1, Regensburg",
      "lat": 49.019605,
      "lng": 12.1018014,
      "categories": [
        "school"
      ],
      "source": "osm",
      "osmType": "node",
      "osmId": 3899779720
    },
    {
      "id": "osm-way-128277683",
      "label": "Birnthaler",
      "address": "Heitzenhofener Weg 13, Kallmünz",
      "lat": 49.1456173,
      "lng": 11.9528656,
      "categories": [
        "hotel"
      ],
      "source": "osm",
      "osmType": "way",
      "osmId": 128277683
    },
    {
      "id": "osm-way-94904466",
      "label": "Bischof-Manfred-Müller-Schule",
      "address": "Weinweg 31, Regensburg",
      "lat": 49.0256071,
      "lng": 12.0688814,
      "categories": [
        "school"
      ],
      "source": "osm",
      "osmType": "way",
      "osmId": 94904466
    },
    {
      "id": "osm-way-120681400",
      "label": "Bischof-Wittmann-Zentrum",
      "address": "OSM-POI",
      "lat": 48.9950194,
      "lng": 12.109747,
      "categories": [
        "school"
      ],
      "source": "osm",
      "osmType": "way",
      "osmId": 120681400
    },
    {
      "id": "osm-node-667695065",
      "label": "Bischofshof",
      "address": "Krauterermarkt 3, Regensburg",
      "lat": 49.0201264,
      "lng": 12.0978544,
      "categories": [
        "hotel"
      ],
      "source": "osm",
      "osmType": "node",
      "osmId": 667695065
    },
    {
      "id": "osm-way-53084218",
      "label": "Bischofshof Braustuben",
      "address": "Dechbettener Straße 50, Regensburg",
      "lat": 49.0146178,
      "lng": 12.0766703,
      "categories": [
        "hotel"
      ],
      "source": "osm",
      "osmType": "way",
      "osmId": 53084218
    },
    {
      "id": "osm-way-60201508",
      "label": "Blindeninstitut Regensburg",
      "address": "OSM-POI",
      "lat": 49.0104557,
      "lng": 12.0487653,
      "categories": [
        "nursing-home"
      ],
      "source": "osm",
      "osmType": "way",
      "osmId": 60201508
    },
    {
      "id": "osm-node-3534116326",
      "label": "Blumenkinder",
      "address": "OSM-POI",
      "lat": 49.0115036,
      "lng": 12.1398348,
      "categories": [
        "kindergarten"
      ],
      "source": "osm",
      "osmType": "node",
      "osmId": 3534116326
    },
    {
      "id": "osm-way-126759511",
      "label": "Boardinghouse Neutraubling",
      "address": "Am Karlsfeld 2, Neutraubling",
      "lat": 48.9934525,
      "lng": 12.1925251,
      "categories": [
        "hotel"
      ],
      "source": "osm",
      "osmType": "way",
      "osmId": 126759511
    },
    {
      "id": "osm-way-142701763",
      "label": "Body Fit Wörth",
      "address": "Im Haslet 23, Wörth an der Donau",
      "lat": 48.9998536,
      "lng": 12.3898666,
      "categories": [
        "sports-centre"
      ],
      "source": "osm",
      "osmType": "way",
      "osmId": 142701763
    },
    {
      "id": "osm-node-4934372060",
      "label": "Bohemian",
      "address": "Gesandtenstraße 12, Regensburg",
      "lat": 49.0186304,
      "lng": 12.0919887,
      "categories": [
        "hotel"
      ],
      "source": "osm",
      "osmType": "node",
      "osmId": 4934372060
    },
    {
      "id": "osm-node-3713341335",
      "label": "Bootsschule Regensburg",
      "address": "Landshuter Straße 72 b, Regensburg",
      "lat": 49.0070229,
      "lng": 12.1165235,
      "categories": [
        "school"
      ],
      "source": "osm",
      "osmType": "node",
      "osmId": 3713341335
    },
    {
      "id": "osm-node-1157973450",
      "label": "Boulderwelt Regensburg",
      "address": "Im Gewerbepark A46, Regensburg",
      "lat": 49.0321913,
      "lng": 12.128645,
      "categories": [
        "sports-centre"
      ],
      "source": "osm",
      "osmType": "node",
      "osmId": 1157973450
    },
    {
      "id": "osm-node-1962664295",
      "label": "Boulodrom",
      "address": "OSM-POI",
      "lat": 49.0348914,
      "lng": 11.9924569,
      "categories": [
        "sports-centre"
      ],
      "source": "osm",
      "osmType": "node",
      "osmId": 1962664295
    },
    {
      "id": "osm-node-793475702",
      "label": "Boxfit",
      "address": "Donaustaufer Straße 146, Regensburg",
      "lat": 49.0286074,
      "lng": 12.1231918,
      "categories": [
        "sports-centre"
      ],
      "source": "osm",
      "osmType": "node",
      "osmId": 793475702
    },
    {
      "id": "osm-way-159076737",
      "label": "Brauereigasthof Goss",
      "address": "Regensburger Straße 16, Deuerling",
      "lat": 49.0349503,
      "lng": 11.9078208,
      "categories": [
        "hotel"
      ],
      "source": "osm",
      "osmType": "way",
      "osmId": 159076737
    },
    {
      "id": "osm-way-29139550",
      "label": "BRK Seniorenheim Schloss Eggmühl",
      "address": "Kirchplatz 1, Schierling",
      "lat": 48.8442825,
      "lng": 12.1837326,
      "categories": [
        "nursing-home"
      ],
      "source": "osm",
      "osmType": "way",
      "osmId": 29139550
    },
    {
      "id": "osm-node-8592353932",
      "label": "BRK Waldkindergarten Rumpeltrolle",
      "address": "OSM-POI",
      "lat": 49.1273073,
      "lng": 11.8164891,
      "categories": [
        "kindergarten"
      ],
      "source": "osm",
      "osmType": "node",
      "osmId": 8592353932
    },
    {
      "id": "osm-node-9264589314",
      "label": "BRK-Kinderhaus \"Am Kunstpark\"",
      "address": "Agnes-Pütreich-Straße 4, Regensburg",
      "lat": 49.0104218,
      "lng": 12.1204347,
      "categories": [
        "kindergarten"
      ],
      "source": "osm",
      "osmType": "node",
      "osmId": 9264589314
    },
    {
      "id": "osm-node-6882788915",
      "label": "BRK-Tagespflege Oase",
      "address": "Frauenzeller Straße 40, Wiesent",
      "lat": 49.0076645,
      "lng": 12.3790563,
      "categories": [
        "nursing-home"
      ],
      "source": "osm",
      "osmType": "node",
      "osmId": 6882788915
    },
    {
      "id": "osm-node-497580297",
      "label": "Bruder-Konrad-Kindergarten",
      "address": "OSM-POI",
      "lat": 49.072135,
      "lng": 11.9562349,
      "categories": [
        "kindergarten"
      ],
      "source": "osm",
      "osmType": "node",
      "osmId": 497580297
    },
    {
      "id": "osm-node-9103481301",
      "label": "Bürgerstift St. Michael",
      "address": "Am Singrün 2a, Regensburg",
      "lat": 49.0216369,
      "lng": 12.0838636,
      "categories": [
        "nursing-home"
      ],
      "source": "osm",
      "osmType": "node",
      "osmId": 9103481301
    },
    {
      "id": "osm-node-12768658273",
      "label": "Burgmäuse",
      "address": "Georg-Herbst-Straße 1b, Regensburg",
      "lat": 49.0127227,
      "lng": 12.0666427,
      "categories": [
        "kindergarten"
      ],
      "source": "osm",
      "osmType": "node",
      "osmId": 12768658273
    },
    {
      "id": "osm-way-29133673",
      "label": "Campuskinder e.V.",
      "address": "Albertus-Magnus-Straße 16, Regensburg",
      "lat": 48.997929,
      "lng": 12.0979442,
      "categories": [
        "kindergarten"
      ],
      "source": "osm",
      "osmType": "way",
      "osmId": 29133673
    },
    {
      "id": "osm-way-94885790",
      "label": "Caritas Alten- und Pflegeheim Fritz Gerlich",
      "address": "Boessnerstraße 5, Regensburg",
      "lat": 49.025597,
      "lng": 12.0655296,
      "categories": [
        "nursing-home"
      ],
      "source": "osm",
      "osmType": "way",
      "osmId": 94885790
    },
    {
      "id": "osm-node-9722079557",
      "label": "Chirurgie- und VenenCentrum",
      "address": "Regensburger Straße 13, Neutraubling",
      "lat": 48.9939525,
      "lng": 12.1941869,
      "categories": [
        "practice"
      ],
      "source": "osm",
      "osmType": "node",
      "osmId": 9722079557
    },
    {
      "id": "osm-node-2979682479",
      "label": "Chirurgisch / Unfallchirurgische Gemeinschaftspraxis",
      "address": "Paracelsusstraße 2, Regensburg",
      "lat": 49.0108623,
      "lng": 12.0968989,
      "categories": [
        "practice"
      ],
      "source": "osm",
      "osmType": "node",
      "osmId": 2979682479
    },
    {
      "id": "osm-node-13592322502",
      "label": "Christian Signer, Arzt für Allgemeinmedizin",
      "address": "Regensburger Straße 21",
      "lat": 49.048789,
      "lng": 12.0909115,
      "categories": [
        "practice"
      ],
      "source": "osm",
      "osmType": "node",
      "osmId": 13592322502
    },
    {
      "id": "osm-way-50052998",
      "label": "CinemaxX",
      "address": "Friedenstraße 25, Regensburg",
      "lat": 49.0105387,
      "lng": 12.1011951,
      "categories": [
        "cinema"
      ],
      "source": "osm",
      "osmType": "way",
      "osmId": 50052998
    },
    {
      "id": "osm-way-122318682",
      "label": "Clermont-Ferrand Mittelschule",
      "address": "OSM-POI",
      "lat": 49.022921,
      "lng": 12.0676376,
      "categories": [
        "school"
      ],
      "source": "osm",
      "osmType": "way",
      "osmId": 122318682
    },
    {
      "id": "osm-way-94904817",
      "label": "Clermont-Ferrand-Mittelschule Regensburg",
      "address": "Clermont-Ferrand-Allee 23, Regensburg",
      "lat": 49.0231361,
      "lng": 12.0671142,
      "categories": [
        "school"
      ],
      "source": "osm",
      "osmType": "way",
      "osmId": 94904817
    },
    {
      "id": "osm-node-4346472256",
      "label": "DAA-Technikum",
      "address": "Alfons-Auer-Straße 18, Regensburg",
      "lat": 49.0057686,
      "lng": 12.1094535,
      "categories": [
        "university"
      ],
      "source": "osm",
      "osmType": "node",
      "osmId": 4346472256
    },
    {
      "id": "osm-node-4908903110",
      "label": "Dallmeier SIT-Point",
      "address": "Bahnhofstraße 16, Regensburg",
      "lat": 49.0122396,
      "lng": 12.0960706,
      "categories": [
        "school"
      ],
      "source": "osm",
      "osmType": "node",
      "osmId": 4908903110
    },
    {
      "id": "osm-node-13776615601",
      "label": "Das Regensburg Hote",
      "address": "Jesuitenplatz 1",
      "lat": 49.0160021,
      "lng": 12.0970211,
      "categories": [
        "hotel"
      ],
      "source": "osm",
      "osmType": "node",
      "osmId": 13776615601
    },
    {
      "id": "osm-way-98602064",
      "label": "das Stadtwerk.Hallenbad",
      "address": "Gabelsbergerstraße 14, Regensburg",
      "lat": 49.0156406,
      "lng": 12.1064463,
      "categories": [
        "sports-centre"
      ],
      "source": "osm",
      "osmType": "way",
      "osmId": 98602064
    },
    {
      "id": "osm-way-148631769",
      "label": "DAV Kletterzentrum Regensburg",
      "address": "Am Silbergarten 6, Lappersdorf",
      "lat": 49.0426809,
      "lng": 12.0860812,
      "categories": [
        "sports-centre"
      ],
      "source": "osm",
      "osmType": "way",
      "osmId": 148631769
    },
    {
      "id": "osm-node-6502067412",
      "label": "David Diaz",
      "address": "D.-Martin-Luther-Straße 17, Regensburg",
      "lat": 49.0145507,
      "lng": 12.1018931,
      "categories": [
        "dentist"
      ],
      "source": "osm",
      "osmType": "node",
      "osmId": 6502067412
    },
    {
      "id": "osm-way-95928926",
      "label": "Dechbettener Hof",
      "address": "Dechbetten 11, Regensburg",
      "lat": 49.0078528,
      "lng": 12.0599237,
      "categories": [
        "hotel"
      ],
      "source": "osm",
      "osmType": "way",
      "osmId": 95928926
    },
    {
      "id": "osm-node-6715320988",
      "label": "Dental Concept I Zahnarzt Armin Futterer",
      "address": "Regensburg",
      "lat": 49.027227,
      "lng": 12.1096607,
      "categories": [
        "dentist"
      ],
      "source": "osm",
      "osmType": "node",
      "osmId": 6715320988
    },
    {
      "id": "osm-node-10302512975",
      "label": "Deuerling",
      "address": "OSM-POI",
      "lat": 49.0416551,
      "lng": 11.9148959,
      "categories": [
        "railway-station"
      ],
      "source": "osm",
      "osmType": "node",
      "osmId": 10302512975
    },
    {
      "id": "osm-node-4615969691",
      "label": "Deutschkurs Von A1 Bis C2",
      "address": "Im Gewerbepark C55, Regensburg",
      "lat": 49.0295152,
      "lng": 12.1285781,
      "categories": [
        "school"
      ],
      "source": "osm",
      "osmType": "node",
      "osmId": 4615969691
    },
    {
      "id": "osm-way-99939002",
      "label": "Diakonie Regensburg",
      "address": "Prüfeninger Straße 53, Regensburg",
      "lat": 49.0164134,
      "lng": 12.0728767,
      "categories": [
        "nursing-home"
      ],
      "source": "osm",
      "osmType": "way",
      "osmId": 99939002
    },
    {
      "id": "osm-node-10755964965",
      "label": "Dialysezentrum Regenstauf",
      "address": "OSM-POI",
      "lat": 49.11389,
      "lng": 12.1400347,
      "categories": [
        "practice"
      ],
      "source": "osm",
      "osmType": "node",
      "osmId": 10755964965
    },
    {
      "id": "osm-node-11389889819",
      "label": "Die Kardiologen",
      "address": "Im Gewerbepark C27, Regensburg",
      "lat": 49.0298223,
      "lng": 12.1247282,
      "categories": [
        "practice"
      ],
      "source": "osm",
      "osmType": "node",
      "osmId": 11389889819
    },
    {
      "id": "osm-way-125304952",
      "label": "Die Kupferpfanne",
      "address": "Lessingstraße 48, Donaustauf",
      "lat": 49.0348092,
      "lng": 12.2205851,
      "categories": [
        "hotel"
      ],
      "source": "osm",
      "osmType": "way",
      "osmId": 125304952
    },
    {
      "id": "osm-node-9117917489",
      "label": "Dipl.-Psych. Univ. Jutta Metzger-Brewka",
      "address": "Müllerstraße 21, Regensburg",
      "lat": 49.0229427,
      "lng": 12.094303,
      "categories": [
        "practice"
      ],
      "source": "osm",
      "osmType": "node",
      "osmId": 9117917489
    },
    {
      "id": "osm-way-118342246",
      "label": "DJK-Sportplatz",
      "address": "OSM-POI",
      "lat": 49.0217286,
      "lng": 12.0600561,
      "categories": [
        "sports-centre"
      ],
      "source": "osm",
      "osmType": "way",
      "osmId": 118342246
    },
    {
      "id": "osm-way-143034420",
      "label": "Do-Li",
      "address": "Donaustraße 7, Wörth an der Donau",
      "lat": 48.9985128,
      "lng": 12.3970202,
      "categories": [
        "cinema"
      ],
      "source": "osm",
      "osmType": "way",
      "osmId": 143034420
    },
    {
      "id": "osm-node-4858414658",
      "label": "Dojo - Raum für Wegkunst und Stille",
      "address": "Udetstraße 8, Regensburg",
      "lat": 49.0196851,
      "lng": 12.060298,
      "categories": [
        "sports-centre"
      ],
      "source": "osm",
      "osmType": "node",
      "osmId": 4858414658
    },
    {
      "id": "osm-way-39962246",
      "label": "Dom Sankt Peter",
      "address": "Domplatz 1, Regensburg",
      "lat": 49.0194716,
      "lng": 12.0983453,
      "categories": [
        "church"
      ],
      "source": "osm",
      "osmType": "way",
      "osmId": 39962246
    },
    {
      "id": "osm-way-94366759",
      "label": "Dominkanerkirche St. Blasius",
      "address": "Am Ölberg 5, Regensburg",
      "lat": 49.0180607,
      "lng": 12.0906167,
      "categories": [
        "church"
      ],
      "source": "osm",
      "osmType": "way",
      "osmId": 94366759
    },
    {
      "id": "osm-node-3721129325",
      "label": "Don Bosco Zentrum",
      "address": "Hans-Sachs-Straße 4, Regensburg",
      "lat": 49.0220944,
      "lng": 12.0761869,
      "categories": [
        "nursing-home"
      ],
      "source": "osm",
      "osmType": "node",
      "osmId": 3721129325
    },
    {
      "id": "osm-way-31788919",
      "label": "Donau-Arena",
      "address": "Walhalla-Allee 22, Regensburg",
      "lat": 49.025227,
      "lng": 12.1327963,
      "categories": [
        "sports-centre"
      ],
      "source": "osm",
      "osmType": "way",
      "osmId": 31788919
    },
    {
      "id": "osm-way-93584232",
      "label": "Donau-Einkaufszentrum (DEZ)",
      "address": "Weichser Weg 5, Regensburg",
      "lat": 49.0258427,
      "lng": 12.1164164,
      "categories": [
        "mall"
      ],
      "source": "osm",
      "osmType": "way",
      "osmId": 93584232
    },
    {
      "id": "osm-way-87437458",
      "label": "Donau-Hotel",
      "address": "Am Reitfeld 12, Sinzing",
      "lat": 48.9940697,
      "lng": 12.031947,
      "categories": [
        "hotel"
      ],
      "source": "osm",
      "osmType": "way",
      "osmId": 87437458
    },
    {
      "id": "osm-node-1764450565",
      "label": "Döpfer-Schulen Regensburg GmbH",
      "address": "Galgenbergstraße 2b, Regensburg",
      "lat": 49.0097305,
      "lng": 12.1004411,
      "categories": [
        "school"
      ],
      "source": "osm",
      "osmType": "node",
      "osmId": 1764450565
    },
    {
      "id": "osm-node-3233247817",
      "label": "Dr med. Christian Linhardt - Facharzt für Allgemeinmedizin - Naturheilverfahren",
      "address": "Ostmarkstraße 25",
      "lat": 49.0959464,
      "lng": 11.8164041,
      "categories": [
        "practice"
      ],
      "source": "osm",
      "osmType": "node",
      "osmId": 3233247817
    },
    {
      "id": "osm-node-6506176801",
      "label": "Dr. Andreas Pfuhl",
      "address": "OSM-POI",
      "lat": 49.0185582,
      "lng": 12.0899388,
      "categories": [
        "practice"
      ],
      "source": "osm",
      "osmType": "node",
      "osmId": 6506176801
    },
    {
      "id": "osm-node-1743468359",
      "label": "Dr. Armin Reith",
      "address": "OSM-POI",
      "lat": 49.0080617,
      "lng": 12.1133699,
      "categories": [
        "dentist"
      ],
      "source": "osm",
      "osmType": "node",
      "osmId": 1743468359
    },
    {
      "id": "osm-node-12140116382",
      "label": "Dr. Bächer & Kollegen",
      "address": "OSM-POI",
      "lat": 49.0149814,
      "lng": 12.1003992,
      "categories": [
        "practice"
      ],
      "source": "osm",
      "osmType": "node",
      "osmId": 12140116382
    },
    {
      "id": "osm-node-13149165990",
      "label": "Dr. Beck",
      "address": "Bäckergasse 13, Regensburg",
      "lat": 49.0282696,
      "lng": 12.1008652,
      "categories": [
        "dentist"
      ],
      "source": "osm",
      "osmType": "node",
      "osmId": 13149165990
    },
    {
      "id": "osm-node-6960550853",
      "label": "Dr. Benjamin Duschl",
      "address": "OSM-POI",
      "lat": 48.9853339,
      "lng": 12.1962498,
      "categories": [
        "dentist"
      ],
      "source": "osm",
      "osmType": "node",
      "osmId": 6960550853
    },
    {
      "id": "osm-node-4750723989",
      "label": "Dr. Bernhard Lauerer",
      "address": "Kumpfmühler Straße 63, Regensburg",
      "lat": 49.0063255,
      "lng": 12.0866559,
      "categories": [
        "dentist"
      ],
      "source": "osm",
      "osmType": "node",
      "osmId": 4750723989
    },
    {
      "id": "osm-node-13239344844",
      "label": "Dr. Bernhard Mauerer & Kollegen",
      "address": "Fritz-Fend-Straße 4, Regensburg",
      "lat": 49.0123574,
      "lng": 12.0897864,
      "categories": [
        "dentist"
      ],
      "source": "osm",
      "osmType": "node",
      "osmId": 13239344844
    },
    {
      "id": "osm-node-983608708",
      "label": "Dr. Bihler",
      "address": "OSM-POI",
      "lat": 49.0008908,
      "lng": 12.0824991,
      "categories": [
        "practice"
      ],
      "source": "osm",
      "osmType": "node",
      "osmId": 983608708
    },
    {
      "id": "osm-node-8348967230",
      "label": "Dr. Bürgin - Dr. Elsässer",
      "address": "Aussiger Straße 4 a, Regensburg",
      "lat": 49.0414793,
      "lng": 12.1246568,
      "categories": [
        "practice"
      ],
      "source": "osm",
      "osmType": "node",
      "osmId": 8348967230
    },
    {
      "id": "osm-node-11770084067",
      "label": "Dr. Dehen und Dr. Käser",
      "address": "Prüfeninger Straße 26, Regensburg",
      "lat": 49.017624,
      "lng": 12.0782193,
      "categories": [
        "dentist"
      ],
      "source": "osm",
      "osmType": "node",
      "osmId": 11770084067
    },
    {
      "id": "osm-node-1633694800",
      "label": "Dr. Delia Barbian",
      "address": "Pielmühler Straße 3, Lappersdorf",
      "lat": 49.0513488,
      "lng": 12.0902136,
      "categories": [
        "practice"
      ],
      "source": "osm",
      "osmType": "node",
      "osmId": 1633694800
    },
    {
      "id": "osm-node-13176673486",
      "label": "Dr. Dr. Marius Tigan",
      "address": "OSM-POI",
      "lat": 49.0178071,
      "lng": 12.0865418,
      "categories": [
        "dentist"
      ],
      "source": "osm",
      "osmType": "node",
      "osmId": 13176673486
    },
    {
      "id": "osm-node-11172622279",
      "label": "Dr. Ehlert",
      "address": "OSM-POI",
      "lat": 49.016199,
      "lng": 12.1016231,
      "categories": [
        "practice"
      ],
      "source": "osm",
      "osmType": "node",
      "osmId": 11172622279
    },
    {
      "id": "osm-node-932135833",
      "label": "Dr. Enhuber Allgemeinarzt",
      "address": "Aussiger Straße 11, Neutraubling",
      "lat": 48.9876222,
      "lng": 12.1971228,
      "categories": [
        "practice"
      ],
      "source": "osm",
      "osmType": "node",
      "osmId": 932135833
    },
    {
      "id": "osm-node-3220405719",
      "label": "Dr. Faltermayer Sandra",
      "address": "Straubinger Straße 24, Regensburg",
      "lat": 49.0137892,
      "lng": 12.1246976,
      "categories": [
        "dentist"
      ],
      "source": "osm",
      "osmType": "node",
      "osmId": 3220405719
    },
    {
      "id": "osm-node-10808090012",
      "label": "Dr. Geineder, Dr. Straile",
      "address": "Lorenzer Straße 10, Lappersdorf",
      "lat": 49.0723469,
      "lng": 12.0552843,
      "categories": [
        "dentist"
      ],
      "source": "osm",
      "osmType": "node",
      "osmId": 10808090012
    },
    {
      "id": "osm-node-5318780421",
      "label": "Dr. Gessendorfer Dr. Michelson, Dr. Gassner",
      "address": "Regensburg",
      "lat": 49.0198969,
      "lng": 12.0901983,
      "categories": [
        "practice"
      ],
      "source": "osm",
      "osmType": "node",
      "osmId": 5318780421
    },
    {
      "id": "osm-node-6515265618",
      "label": "Dr. Golla-Ebert",
      "address": "Donaustaufer Straße 27, Regensburg",
      "lat": 49.0306986,
      "lng": 12.1057346,
      "categories": [
        "practice"
      ],
      "source": "osm",
      "osmType": "node",
      "osmId": 6515265618
    },
    {
      "id": "osm-node-1653823230",
      "label": "Dr. Hien",
      "address": "Franz-von-Taxis-Ring 53, Regensburg",
      "lat": 49.013332,
      "lng": 12.0518492,
      "categories": [
        "dentist"
      ],
      "source": "osm",
      "osmType": "node",
      "osmId": 1653823230
    },
    {
      "id": "osm-node-357396978",
      "label": "Dr. Hümmer",
      "address": "OSM-POI",
      "lat": 49.0478894,
      "lng": 12.1267084,
      "categories": [
        "dentist"
      ],
      "source": "osm",
      "osmType": "node",
      "osmId": 357396978
    },
    {
      "id": "osm-node-13176655449",
      "label": "Dr. Iris Neuner",
      "address": "OSM-POI",
      "lat": 49.0159168,
      "lng": 12.0801374,
      "categories": [
        "dentist"
      ],
      "source": "osm",
      "osmType": "node",
      "osmId": 13176655449
    },
    {
      "id": "osm-node-9770405144",
      "label": "Dr. Isabel Oberacher-Kohlhäufl",
      "address": "Hoppestraße 5, Regensburg",
      "lat": 49.0149636,
      "lng": 12.0837772,
      "categories": [
        "practice"
      ],
      "source": "osm",
      "osmType": "node",
      "osmId": 9770405144
    },
    {
      "id": "osm-node-9388462063",
      "label": "Dr. J. Schmalhofer, Dr. J. Stoll",
      "address": "Hermann-Geib-Straße 2, Regensburg",
      "lat": 49.0102352,
      "lng": 12.1106621,
      "categories": [
        "dentist"
      ],
      "source": "osm",
      "osmType": "node",
      "osmId": 9388462063
    },
    {
      "id": "osm-node-5339029621",
      "label": "Dr. Jörg Schifferl Dr. Sabine Schindler",
      "address": "Isarstraße 1, Regensburg",
      "lat": 49.0338805,
      "lng": 12.1138374,
      "categories": [
        "dentist"
      ],
      "source": "osm",
      "osmType": "node",
      "osmId": 5339029621
    },
    {
      "id": "osm-node-9759189588",
      "label": "Dr. Judit Gruber",
      "address": "Domplatz 5, Regensburg",
      "lat": 49.0190945,
      "lng": 12.0975261,
      "categories": [
        "practice"
      ],
      "source": "osm",
      "osmType": "node",
      "osmId": 9759189588
    },
    {
      "id": "osm-node-4086616741",
      "label": "Dr. Julia Klemens (vorm. Dietrich)",
      "address": "Schwarze-Bären-Straße 10, Regensburg",
      "lat": 49.0178029,
      "lng": 12.0996121,
      "categories": [
        "dentist"
      ],
      "source": "osm",
      "osmType": "node",
      "osmId": 4086616741
    },
    {
      "id": "osm-node-1399643266",
      "label": "Dr. Knörzer & Kollegen",
      "address": "Stromerstraße 2 a, Regensburg",
      "lat": 49.013257,
      "lng": 12.0537891,
      "categories": [
        "dentist"
      ],
      "source": "osm",
      "osmType": "node",
      "osmId": 1399643266
    },
    {
      "id": "osm-node-6164323443",
      "label": "Dr. Kohlmeyer | Kollegen (Allgemeinärzte)",
      "address": "Berliner Straße 18, Regensburg",
      "lat": 49.0470949,
      "lng": 12.1189892,
      "categories": [
        "practice"
      ],
      "source": "osm",
      "osmType": "node",
      "osmId": 6164323443
    },
    {
      "id": "osm-node-1653823238",
      "label": "Dr. Krieter",
      "address": "Kumpfmühler Straße 30, Regensburg",
      "lat": 49.0099326,
      "lng": 12.0875084,
      "categories": [
        "dentist"
      ],
      "source": "osm",
      "osmType": "node",
      "osmId": 1653823238
    },
    {
      "id": "osm-node-2967882159",
      "label": "Dr. M. Geisler, Dr. Jeanette Mederer",
      "address": "OSM-POI",
      "lat": 49.0655752,
      "lng": 11.8890015,
      "categories": [
        "practice"
      ],
      "source": "osm",
      "osmType": "node",
      "osmId": 2967882159
    },
    {
      "id": "osm-node-527431414",
      "label": "Dr. Mantell",
      "address": "Donaustaufer Straße, Regensburg",
      "lat": 49.025303,
      "lng": 12.1484513,
      "categories": [
        "practice"
      ],
      "source": "osm",
      "osmType": "node",
      "osmId": 527431414
    },
    {
      "id": "osm-node-366840296",
      "label": "Dr. Marlene Volz-Fleckenstein",
      "address": "Sudetendeutsche Straße 1b, Regensburg",
      "lat": 49.0346811,
      "lng": 12.1161778,
      "categories": [
        "practice"
      ],
      "source": "osm",
      "osmType": "node",
      "osmId": 366840296
    },
    {
      "id": "osm-node-1695098989",
      "label": "Dr. Matthias Wenig",
      "address": "Reichsstraße 23, Regensburg",
      "lat": 49.0156666,
      "lng": 12.1135452,
      "categories": [
        "practice"
      ],
      "source": "osm",
      "osmType": "node",
      "osmId": 1695098989
    },
    {
      "id": "osm-node-3018377838",
      "label": "Dr. med Norbert Bloos",
      "address": "OSM-POI",
      "lat": 49.0961613,
      "lng": 11.8051812,
      "categories": [
        "practice"
      ],
      "source": "osm",
      "osmType": "node",
      "osmId": 3018377838
    },
    {
      "id": "osm-node-6109420153",
      "label": "Dr. med Vera Schnell",
      "address": "Boelckestraße 17-19, Regensburg",
      "lat": 49.0006267,
      "lng": 12.0758046,
      "categories": [
        "practice"
      ],
      "source": "osm",
      "osmType": "node",
      "osmId": 6109420153
    },
    {
      "id": "osm-node-4386295480",
      "label": "Dr. med. Bruno Brandscherdt",
      "address": "Dendorferstraße 6, Köfering",
      "lat": 48.9344878,
      "lng": 12.201657,
      "categories": [
        "practice"
      ],
      "source": "osm",
      "osmType": "node",
      "osmId": 4386295480
    },
    {
      "id": "osm-way-134428725",
      "label": "Dr. med. dent. Anita Maćków",
      "address": "Langenerlinger Straße 14, Hagelstadt",
      "lat": 48.8955632,
      "lng": 12.2172109,
      "categories": [
        "dentist"
      ],
      "source": "osm",
      "osmType": "way",
      "osmId": 134428725
    },
    {
      "id": "osm-node-2916641611",
      "label": "Dr. med. dent. Anton Achhammer",
      "address": "Jahnstraße 14, Alteglofsheim",
      "lat": 48.9179852,
      "lng": 12.2029314,
      "categories": [
        "dentist"
      ],
      "source": "osm",
      "osmType": "node",
      "osmId": 2916641611
    },
    {
      "id": "osm-node-8254943926",
      "label": "Dr. med. dent. Birgit Meyer",
      "address": "Kirchstraße 10, Sünching",
      "lat": 48.8795967,
      "lng": 12.3542707,
      "categories": [
        "dentist"
      ],
      "source": "osm",
      "osmType": "node",
      "osmId": 8254943926
    },
    {
      "id": "osm-node-6960550846",
      "label": "Dr. med. dent. Christian E. Schmid",
      "address": "OSM-POI",
      "lat": 48.9911782,
      "lng": 12.2001768,
      "categories": [
        "dentist"
      ],
      "source": "osm",
      "osmType": "node",
      "osmId": 6960550846
    },
    {
      "id": "osm-node-13234513228",
      "label": "Dr. med. dent. Inge-Maria Schwab",
      "address": "Maximilianstraße 7, Regensburg",
      "lat": 49.0172659,
      "lng": 12.1006812,
      "categories": [
        "dentist"
      ],
      "source": "osm",
      "osmType": "node",
      "osmId": 13234513228
    },
    {
      "id": "osm-node-6158477986",
      "label": "Dr. med. dent. Michaela Huber",
      "address": "Hofgartenweg 1a, Regensburg",
      "lat": 49.005923,
      "lng": 12.0893002,
      "categories": [
        "dentist"
      ],
      "source": "osm",
      "osmType": "node",
      "osmId": 6158477986
    },
    {
      "id": "osm-node-4386290078",
      "label": "Dr. med. dent. Peter Götzfried",
      "address": "Am Bahndamm 3, Köfering",
      "lat": 48.9382865,
      "lng": 12.2032073,
      "categories": [
        "dentist"
      ],
      "source": "osm",
      "osmType": "node",
      "osmId": 4386290078
    },
    {
      "id": "osm-node-13705399010",
      "label": "Dr. med. dent. Stephanie Kley",
      "address": "Marktstraße 7, Mintraching",
      "lat": 48.9554272,
      "lng": 12.2398746,
      "categories": [
        "dentist"
      ],
      "source": "osm",
      "osmType": "node",
      "osmId": 13705399010
    },
    {
      "id": "osm-node-11389624049",
      "label": "Dr. med. Eichhorn",
      "address": "Im Gewerbepark C15, Regensburg",
      "lat": 49.0304571,
      "lng": 12.1252095,
      "categories": [
        "practice"
      ],
      "source": "osm",
      "osmType": "node",
      "osmId": 11389624049
    },
    {
      "id": "osm-node-4233362016",
      "label": "Dr. med. Elke Kistner",
      "address": "Landshuter Straße 11, Regensburg",
      "lat": 49.0151716,
      "lng": 12.1043086,
      "categories": [
        "practice"
      ],
      "source": "osm",
      "osmType": "node",
      "osmId": 4233362016
    },
    {
      "id": "osm-node-5713781431",
      "label": "Dr. med. Erich Gahleitner",
      "address": "Im Gewerbepark C27, Regensburg",
      "lat": 49.0298496,
      "lng": 12.1241625,
      "categories": [
        "practice"
      ],
      "source": "osm",
      "osmType": "node",
      "osmId": 5713781431
    },
    {
      "id": "osm-way-132693044",
      "label": "Dr. med. Ernst Horsch",
      "address": "Hauptstraße 2, Mintraching",
      "lat": 48.9550213,
      "lng": 12.2394418,
      "categories": [
        "practice"
      ],
      "source": "osm",
      "osmType": "way",
      "osmId": 132693044
    },
    {
      "id": "osm-node-10755964962",
      "label": "Dr. med. Gerhard Chmielewski",
      "address": "OSM-POI",
      "lat": 49.1137443,
      "lng": 12.1401152,
      "categories": [
        "practice"
      ],
      "source": "osm",
      "osmType": "node",
      "osmId": 10755964962
    },
    {
      "id": "osm-node-13434366756",
      "label": "Dr. med. Hans Kehrer",
      "address": "OSM-POI",
      "lat": 49.0135969,
      "lng": 12.106197,
      "categories": [
        "practice"
      ],
      "source": "osm",
      "osmType": "node",
      "osmId": 13434366756
    },
    {
      "id": "osm-node-2916641610",
      "label": "Dr. med. Heidrun Spitzer",
      "address": "Jahnstraße 14, Alteglofsheim",
      "lat": 48.9178091,
      "lng": 12.2030654,
      "categories": [
        "practice"
      ],
      "source": "osm",
      "osmType": "node",
      "osmId": 2916641610
    },
    {
      "id": "osm-node-9427705783",
      "label": "Dr. med. Johanna Kirchberg",
      "address": "Universitätsstraße 84, Regensburg",
      "lat": 48.9971408,
      "lng": 12.0883808,
      "categories": [
        "practice"
      ],
      "source": "osm",
      "osmType": "node",
      "osmId": 9427705783
    },
    {
      "id": "osm-node-2979682480",
      "label": "Dr. med. Marie-Luise Götz",
      "address": "Paracelsusstraße 2, Regensburg",
      "lat": 49.010979,
      "lng": 12.0968923,
      "categories": [
        "practice"
      ],
      "source": "osm",
      "osmType": "node",
      "osmId": 2979682480
    },
    {
      "id": "osm-node-1702568762",
      "label": "Dr. med. Peter Eibl",
      "address": "Paracelsusstraße, Regensburg",
      "lat": 49.0104798,
      "lng": 12.0968931,
      "categories": [
        "practice"
      ],
      "source": "osm",
      "osmType": "node",
      "osmId": 1702568762
    },
    {
      "id": "osm-node-735555759",
      "label": "Dr. med. Ralf & Mark Hauer",
      "address": "Fröhliche-Türken-Straße 3, Regensburg",
      "lat": 49.0163154,
      "lng": 12.0982532,
      "categories": [
        "practice"
      ],
      "source": "osm",
      "osmType": "node",
      "osmId": 735555759
    },
    {
      "id": "osm-node-4386286874",
      "label": "Dr. med. Thomas Mauch",
      "address": "Stadlergasse 2a, Mintraching",
      "lat": 48.9540581,
      "lng": 12.2395663,
      "categories": [
        "practice"
      ],
      "source": "osm",
      "osmType": "node",
      "osmId": 4386286874
    },
    {
      "id": "osm-node-11910930905",
      "label": "Dr. med. Vitalij Österle",
      "address": "Schloßplatz 6, Wiesent",
      "lat": 49.0072482,
      "lng": 12.3788811,
      "categories": [
        "practice"
      ],
      "source": "osm",
      "osmType": "node",
      "osmId": 11910930905
    },
    {
      "id": "osm-node-6516238583",
      "label": "Dr. Michael Euringer",
      "address": "Von-der-Tann-Straße 26, Regensburg",
      "lat": 49.0163429,
      "lng": 12.1053269,
      "categories": [
        "dentist"
      ],
      "source": "osm",
      "osmType": "node",
      "osmId": 6516238583
    },
    {
      "id": "osm-node-6960550845",
      "label": "Dr. Patrick Hennen - Praxis für Oralchirurgie & Implantologie",
      "address": "OSM-POI",
      "lat": 48.9941053,
      "lng": 12.1943215,
      "categories": [
        "dentist"
      ],
      "source": "osm",
      "osmType": "node",
      "osmId": 6960550845
    },
    {
      "id": "osm-node-932135784",
      "label": "Dr. Roesen Augenarzt",
      "address": "Aussiger Straße 13, Neutraubling",
      "lat": 48.9874564,
      "lng": 12.1975809,
      "categories": [
        "practice"
      ],
      "source": "osm",
      "osmType": "node",
      "osmId": 932135784
    },
    {
      "id": "osm-node-1745232574",
      "label": "Dr. Schröpfer",
      "address": "Carl-Maria-von-Weber-Straße 2, Regensburg",
      "lat": 49.0032186,
      "lng": 12.1080042,
      "categories": [
        "dentist"
      ],
      "source": "osm",
      "osmType": "node",
      "osmId": 1745232574
    },
    {
      "id": "osm-node-366000506",
      "label": "Dr. Schuldes",
      "address": "OSM-POI",
      "lat": 49.0410737,
      "lng": 11.9179203,
      "categories": [
        "practice"
      ],
      "source": "osm",
      "osmType": "node",
      "osmId": 366000506
    },
    {
      "id": "osm-way-125160838",
      "label": "Dr. Schulze",
      "address": "Mozartstraße 2, Donaustauf",
      "lat": 49.030205,
      "lng": 12.2138859,
      "categories": [
        "dentist"
      ],
      "source": "osm",
      "osmType": "way",
      "osmId": 125160838
    },
    {
      "id": "osm-node-4172675309",
      "label": "Dr. Sebastian Ehbauer",
      "address": "Wenzenbach",
      "lat": 49.0737716,
      "lng": 12.1988315,
      "categories": [
        "dentist"
      ],
      "source": "osm",
      "osmType": "node",
      "osmId": 4172675309
    },
    {
      "id": "osm-node-10755964961",
      "label": "Dr. Sheila Martinez de Pangerl",
      "address": "OSM-POI",
      "lat": 49.1136969,
      "lng": 12.140252,
      "categories": [
        "practice"
      ],
      "source": "osm",
      "osmType": "node",
      "osmId": 10755964961
    },
    {
      "id": "osm-node-12977232637",
      "label": "Dr. Susanne Meyer",
      "address": "Rennweg 17, Regensburg",
      "lat": 49.0127257,
      "lng": 12.0453798,
      "categories": [
        "practice"
      ],
      "source": "osm",
      "osmType": "node",
      "osmId": 12977232637
    },
    {
      "id": "osm-node-13108938397",
      "label": "Dr. Thomas Skandra",
      "address": "Hoppestraße 14, Regensburg",
      "lat": 49.0144734,
      "lng": 12.0831827,
      "categories": [
        "dentist"
      ],
      "source": "osm",
      "osmType": "node",
      "osmId": 13108938397
    },
    {
      "id": "osm-node-8995422029",
      "label": "Dr. Weindler",
      "address": "OSM-POI",
      "lat": 49.0288354,
      "lng": 12.2092237,
      "categories": [
        "dentist"
      ],
      "source": "osm",
      "osmType": "node",
      "osmId": 8995422029
    },
    {
      "id": "osm-node-1140507303",
      "label": "Dr. Winkler & Kollegen",
      "address": "Frankenstraße 7a, Regensburg",
      "lat": 49.0278393,
      "lng": 12.0997253,
      "categories": [
        "dentist"
      ],
      "source": "osm",
      "osmType": "node",
      "osmId": 1140507303
    },
    {
      "id": "osm-node-9040876925",
      "label": "Dr. Wolfgang Pförringer",
      "address": "OSM-POI",
      "lat": 49.0216178,
      "lng": 12.0904371,
      "categories": [
        "practice"
      ],
      "source": "osm",
      "osmType": "node",
      "osmId": 9040876925
    },
    {
      "id": "osm-node-3744911235",
      "label": "Dr. Zacher",
      "address": "Watmarkt 9, Regensburg",
      "lat": 49.0200876,
      "lng": 12.0969611,
      "categories": [
        "practice"
      ],
      "source": "osm",
      "osmType": "node",
      "osmId": 3744911235
    },
    {
      "id": "osm-node-6960550852",
      "label": "Dr.Achammer",
      "address": "OSM-POI",
      "lat": 48.9902827,
      "lng": 12.1947566,
      "categories": [
        "dentist"
      ],
      "source": "osm",
      "osmType": "node",
      "osmId": 6960550852
    },
    {
      "id": "osm-node-2967883199",
      "label": "Dr.Kroehling, Dr.Lunz (Notarzt)",
      "address": "Marktplatz 7a, Laaber",
      "lat": 49.0659306,
      "lng": 11.8853773,
      "categories": [
        "practice"
      ],
      "source": "osm",
      "osmType": "node",
      "osmId": 2967883199
    },
    {
      "id": "osm-node-9037656347",
      "label": "Dr.med. Roland Keller",
      "address": "OSM-POI",
      "lat": 49.0174504,
      "lng": 12.0912497,
      "categories": [
        "practice"
      ],
      "source": "osm",
      "osmType": "node",
      "osmId": 9037656347
    },
    {
      "id": "osm-node-9833862875",
      "label": "Dr.med. Schicketanz",
      "address": "Maximilianstraße 16, Regensburg",
      "lat": 49.0163701,
      "lng": 12.09998,
      "categories": [
        "dentist"
      ],
      "source": "osm",
      "osmType": "node",
      "osmId": 9833862875
    },
    {
      "id": "osm-node-10568481716",
      "label": "Dr.med. Stefan Mehringer",
      "address": "Platz der Einheit 1, Regensburg",
      "lat": 49.0188524,
      "lng": 12.0867817,
      "categories": [
        "practice"
      ],
      "source": "osm",
      "osmType": "node",
      "osmId": 10568481716
    },
    {
      "id": "osm-node-6960550844",
      "label": "Dr.med.dent. Ingeborg Schmidt",
      "address": "OSM-POI",
      "lat": 48.9923623,
      "lng": 12.2002712,
      "categories": [
        "dentist"
      ],
      "source": "osm",
      "osmType": "node",
      "osmId": 6960550844
    },
    {
      "id": "osm-node-6960550843",
      "label": "Dr.med.dent. Rupert Zach Zahnarzt",
      "address": "OSM-POI",
      "lat": 48.9869871,
      "lng": 12.1981305,
      "categories": [
        "dentist"
      ],
      "source": "osm",
      "osmType": "node",
      "osmId": 6960550843
    },
    {
      "id": "osm-node-3924334872",
      "label": "Dr.Michael Semmelmann",
      "address": "OSM-POI",
      "lat": 49.0252778,
      "lng": 11.954607,
      "categories": [
        "practice"
      ],
      "source": "osm",
      "osmType": "node",
      "osmId": 3924334872
    },
    {
      "id": "osm-node-3509038809",
      "label": "Dr.U. Thurn",
      "address": "OSM-POI",
      "lat": 49.0656201,
      "lng": 11.8853295,
      "categories": [
        "dentist"
      ],
      "source": "osm",
      "osmType": "node",
      "osmId": 3509038809
    },
    {
      "id": "osm-way-123843158",
      "label": "Dream Inn Hotel Regensburg",
      "address": "Von-Heyden-Straße 12-14, Tegernheim",
      "lat": 49.0233101,
      "lng": 12.161751,
      "categories": [
        "hotel"
      ],
      "source": "osm",
      "osmType": "way",
      "osmId": 123843158
    },
    {
      "id": "osm-way-34990952",
      "label": "Dreieinigkeitskirche",
      "address": "Am Ölberg 1, Regensburg",
      "lat": 49.0184148,
      "lng": 12.0918193,
      "categories": [
        "church"
      ],
      "source": "osm",
      "osmType": "way",
      "osmId": 34990952
    },
    {
      "id": "osm-way-110783158",
      "label": "Dreifaltigkeitskirche",
      "address": "Am Dreifaltigkeitsberg 8, Regensburg",
      "lat": 49.0311339,
      "lng": 12.0965374,
      "categories": [
        "church"
      ],
      "source": "osm",
      "osmType": "way",
      "osmId": 110783158
    },
    {
      "id": "osm-node-3534115339",
      "label": "Dreirad",
      "address": "OSM-POI",
      "lat": 49.0116479,
      "lng": 12.1401942,
      "categories": [
        "kindergarten"
      ],
      "source": "osm",
      "osmType": "node",
      "osmId": 3534115339
    },
    {
      "id": "osm-node-9040876924",
      "label": "Dres. Bernhard Heindl und Maria Strobel",
      "address": "OSM-POI",
      "lat": 49.0195441,
      "lng": 12.0923938,
      "categories": [
        "practice"
      ],
      "source": "osm",
      "osmType": "node",
      "osmId": 9040876924
    },
    {
      "id": "osm-node-5561200705",
      "label": "Dres. Lehmann & Kollegen",
      "address": "Regensburger Straße 29, Lappersdorf",
      "lat": 49.0483599,
      "lng": 12.0912872,
      "categories": [
        "practice"
      ],
      "source": "osm",
      "osmType": "node",
      "osmId": 5561200705
    },
    {
      "id": "osm-node-13543669894",
      "label": "Dres. med. Andreas Pöppl, Johann Pöppl, Nina Weber",
      "address": "Kumpfmühler Straße 50, Regensburg",
      "lat": 49.0074774,
      "lng": 12.0865643,
      "categories": [
        "practice"
      ],
      "source": "osm",
      "osmType": "node",
      "osmId": 13543669894
    },
    {
      "id": "osm-node-9019510795",
      "label": "Dres. Mohr",
      "address": "OSM-POI",
      "lat": 49.1593357,
      "lng": 11.9600051,
      "categories": [
        "dentist"
      ],
      "source": "osm",
      "osmType": "node",
      "osmId": 9019510795
    },
    {
      "id": "osm-node-5337972474",
      "label": "Drs. Carl Rauscher - Klaus Neumann",
      "address": "Isarstraße 6, Regensburg",
      "lat": 49.0334763,
      "lng": 12.1155035,
      "categories": [
        "practice"
      ],
      "source": "osm",
      "osmType": "node",
      "osmId": 5337972474
    },
    {
      "id": "osm-node-10755964967",
      "label": "Eckert Elia",
      "address": "OSM-POI",
      "lat": 49.1138514,
      "lng": 12.140606,
      "categories": [
        "nursing-home"
      ],
      "source": "osm",
      "osmType": "node",
      "osmId": 10755964967
    },
    {
      "id": "osm-node-10755964968",
      "label": "Eckert Elia",
      "address": "OSM-POI",
      "lat": 49.1139357,
      "lng": 12.1405953,
      "categories": [
        "nursing-home"
      ],
      "source": "osm",
      "osmType": "node",
      "osmId": 10755964968
    },
    {
      "id": "osm-way-128918665",
      "label": "Eckert Schulen Campus Regenstauf",
      "address": "OSM-POI",
      "lat": 49.112966,
      "lng": 12.1353476,
      "categories": [
        "university"
      ],
      "source": "osm",
      "osmType": "way",
      "osmId": 128918665
    },
    {
      "id": "osm-way-94726505",
      "label": "Eckert Schulen Regensburg",
      "address": "Puricellistraße 11, Regensburg",
      "lat": 49.0222144,
      "lng": 12.0594955,
      "categories": [
        "school"
      ],
      "source": "osm",
      "osmType": "way",
      "osmId": 94726505
    },
    {
      "id": "osm-node-4557211993",
      "label": "Eggmühl",
      "address": "OSM-POI",
      "lat": 48.8370777,
      "lng": 12.1833286,
      "categories": [
        "railway-station"
      ],
      "source": "osm",
      "osmType": "node",
      "osmId": 4557211993
    },
    {
      "id": "osm-way-126565157",
      "label": "Ehemaliges Jagdschloss",
      "address": "Thiergartenstraße 10, Donaustauf",
      "lat": 49.039954,
      "lng": 12.2643493,
      "categories": [
        "sports-centre"
      ],
      "source": "osm",
      "osmType": "way",
      "osmId": 126565157
    },
    {
      "id": "osm-node-12078042457",
      "label": "Eicherberg",
      "address": "Eich 5, Kallmünz",
      "lat": 49.1779553,
      "lng": 11.9710105,
      "categories": [
        "hotel"
      ],
      "source": "osm",
      "osmType": "node",
      "osmId": 12078042457
    },
    {
      "id": "osm-way-94950461",
      "label": "Einkaufszentrum West",
      "address": "Agnesstraße 24, Regensburg",
      "lat": 49.0248331,
      "lng": 12.061655,
      "categories": [
        "mall"
      ],
      "source": "osm",
      "osmType": "way",
      "osmId": 94950461
    },
    {
      "id": "osm-node-815977779",
      "label": "Einsiedelei",
      "address": "OSM-POI",
      "lat": 49.0318651,
      "lng": 12.3883864,
      "categories": [
        "church"
      ],
      "source": "osm",
      "osmType": "node",
      "osmId": 815977779
    },
    {
      "id": "osm-way-144461516",
      "label": "Eisenbahner Sportverein 1927 Regensburg e.V.",
      "address": "OSM-POI",
      "lat": 49.0110651,
      "lng": 12.0650526,
      "categories": [
        "sports-centre"
      ],
      "source": "osm",
      "osmType": "way",
      "osmId": 144461516
    },
    {
      "id": "osm-node-11599206724",
      "label": "elaya hotel regensburg city center",
      "address": "Maximilianstraße 22, Regensburg",
      "lat": 49.0159555,
      "lng": 12.1001216,
      "categories": [
        "hotel"
      ],
      "source": "osm",
      "osmType": "node",
      "osmId": 11599206724
    },
    {
      "id": "osm-node-13144872003",
      "label": "Elements",
      "address": "OSM-POI",
      "lat": 49.0192992,
      "lng": 12.1001169,
      "categories": [
        "hotel"
      ],
      "source": "osm",
      "osmType": "node",
      "osmId": 13144872003
    },
    {
      "id": "osm-node-6534073832",
      "label": "Elena Schmidt",
      "address": "Sudetendeutsche Straße 1B, Regensburg",
      "lat": 49.0341678,
      "lng": 12.1159927,
      "categories": [
        "dentist"
      ],
      "source": "osm",
      "osmType": "node",
      "osmId": 6534073832
    },
    {
      "id": "osm-way-100952255",
      "label": "Elisabethinum",
      "address": "Roritzerstraße 7, Regensburg",
      "lat": 49.0136909,
      "lng": 12.1045659,
      "categories": [
        "nursing-home"
      ],
      "source": "osm",
      "osmType": "way",
      "osmId": 100952255
    },
    {
      "id": "osm-node-367738861",
      "label": "Erhardikapelle",
      "address": "OSM-POI",
      "lat": 49.0195199,
      "lng": 12.1015123,
      "categories": [
        "church"
      ],
      "source": "osm",
      "osmType": "node",
      "osmId": 367738861
    },
    {
      "id": "osm-node-3085887826",
      "label": "Erinnerungsstein für einen vom Blitz erschlagenen Bauern",
      "address": "OSM-POI",
      "lat": 48.9225599,
      "lng": 12.1579773,
      "categories": [
        "church"
      ],
      "source": "osm",
      "osmType": "node",
      "osmId": 3085887826
    },
    {
      "id": "osm-node-4566966038",
      "label": "Etterzhausen",
      "address": "OSM-POI",
      "lat": 49.0306831,
      "lng": 11.9776152,
      "categories": [
        "railway-station"
      ],
      "source": "osm",
      "osmType": "node",
      "osmId": 4566966038
    },
    {
      "id": "osm-way-100541001",
      "label": "Eurostars Park Hotel Maximilian",
      "address": "Maximilianstraße 28, Regensburg",
      "lat": 49.0151325,
      "lng": 12.0996259,
      "categories": [
        "hotel"
      ],
      "source": "osm",
      "osmType": "way",
      "osmId": 100541001
    },
    {
      "id": "osm-way-97095704",
      "label": "Evangelisch freikirchliche Gemeinde",
      "address": "Adalbert-Stifter-Straße 33a, Regensburg",
      "lat": 48.9965124,
      "lng": 12.0818267,
      "categories": [
        "church"
      ],
      "source": "osm",
      "osmType": "way",
      "osmId": 97095704
    },
    {
      "id": "osm-node-728275414",
      "label": "Evangelisch-Lutherisches Dekanat",
      "address": "OSM-POI",
      "lat": 49.0175703,
      "lng": 12.0961351,
      "categories": [
        "church"
      ],
      "source": "osm",
      "osmType": "node",
      "osmId": 728275414
    },
    {
      "id": "osm-way-120129686",
      "label": "Evangelische Freikirche",
      "address": "Hartinger Straße 14, Regensburg",
      "lat": 48.9899468,
      "lng": 12.1433753,
      "categories": [
        "church"
      ],
      "source": "osm",
      "osmType": "way",
      "osmId": 120129686
    },
    {
      "id": "osm-way-89064579",
      "label": "Evangelisches Alten- und Pflegeheim Johannesstift",
      "address": "Vitusstraße 14, Regensburg",
      "lat": 48.9953594,
      "lng": 12.0823426,
      "categories": [
        "nursing-home"
      ],
      "source": "osm",
      "osmType": "way",
      "osmId": 89064579
    },
    {
      "id": "osm-way-55090910",
      "label": "Fachakademie für Heilpädagogik",
      "address": "Gutenbergstraße 20, Regensburg",
      "lat": 49.0087618,
      "lng": 12.0883221,
      "categories": [
        "school"
      ],
      "source": "osm",
      "osmType": "way",
      "osmId": 55090910
    },
    {
      "id": "osm-way-129023871",
      "label": "Fachschulen Technik & EDV II",
      "address": "OSM-POI",
      "lat": 49.1143353,
      "lng": 12.1356864,
      "categories": [
        "university"
      ],
      "source": "osm",
      "osmType": "way",
      "osmId": 129023871
    },
    {
      "id": "osm-node-13619692401",
      "label": "Fakultät für Informatik und Mathematik, OTH Regensburg",
      "address": "Galgenbergstraße 32",
      "lat": 49.0024169,
      "lng": 12.0975004,
      "categories": [
        "university"
      ],
      "source": "osm",
      "osmType": "node",
      "osmId": 13619692401
    },
    {
      "id": "osm-node-1321392853",
      "label": "Fatimakapelle",
      "address": "OSM-POI",
      "lat": 49.0342246,
      "lng": 12.216043,
      "categories": [
        "church"
      ],
      "source": "osm",
      "osmType": "node",
      "osmId": 1321392853
    },
    {
      "id": "osm-way-65428989",
      "label": "FC Viehhausen",
      "address": "OSM-POI",
      "lat": 48.9830076,
      "lng": 11.9468546,
      "categories": [
        "sports-centre"
      ],
      "source": "osm",
      "osmType": "way",
      "osmId": 65428989
    },
    {
      "id": "osm-way-115669888",
      "label": "Feuerwehr 115669888",
      "address": "OSM-POI",
      "lat": 48.9643516,
      "lng": 12.0051629,
      "categories": [
        "fire-station"
      ],
      "source": "osm",
      "osmType": "way",
      "osmId": 115669888
    },
    {
      "id": "osm-way-116222075",
      "label": "Feuerwehr 116222075",
      "address": "Dorfstraße 5, Lappersdorf",
      "lat": 49.0563152,
      "lng": 12.0670247,
      "categories": [
        "fire-station"
      ],
      "source": "osm",
      "osmType": "way",
      "osmId": 116222075
    },
    {
      "id": "osm-way-133760043",
      "label": "Feuerwehr 133760043",
      "address": "OSM-POI",
      "lat": 48.9317581,
      "lng": 12.1349427,
      "categories": [
        "fire-station"
      ],
      "source": "osm",
      "osmType": "way",
      "osmId": 133760043
    },
    {
      "id": "osm-way-135199886",
      "label": "Feuerwehr 135199886",
      "address": "Oberehring 8, Riekofen",
      "lat": 48.8995864,
      "lng": 12.329861,
      "categories": [
        "fire-station"
      ],
      "source": "osm",
      "osmType": "way",
      "osmId": 135199886
    },
    {
      "id": "osm-way-144711978",
      "label": "Feuerwehr 144711978",
      "address": "OSM-POI",
      "lat": 48.9920331,
      "lng": 12.4536442,
      "categories": [
        "fire-station"
      ],
      "source": "osm",
      "osmType": "way",
      "osmId": 144711978
    },
    {
      "id": "osm-way-151284970",
      "label": "Feuerwehr 151284970",
      "address": "OSM-POI",
      "lat": 49.0019525,
      "lng": 11.9094201,
      "categories": [
        "fire-station"
      ],
      "source": "osm",
      "osmType": "way",
      "osmId": 151284970
    },
    {
      "id": "osm-node-2209887286",
      "label": "Feuerwehr 2209887286",
      "address": "OSM-POI",
      "lat": 49.1385725,
      "lng": 12.2800836,
      "categories": [
        "fire-station"
      ],
      "source": "osm",
      "osmType": "node",
      "osmId": 2209887286
    },
    {
      "id": "osm-node-2349929620",
      "label": "Feuerwehr 2349929620",
      "address": "OSM-POI",
      "lat": 49.0838503,
      "lng": 11.8982849,
      "categories": [
        "fire-station"
      ],
      "source": "osm",
      "osmType": "node",
      "osmId": 2349929620
    },
    {
      "id": "osm-node-3616071498",
      "label": "Feuerwehr 3616071498",
      "address": "OSM-POI",
      "lat": 49.0675125,
      "lng": 11.8066184,
      "categories": [
        "fire-station"
      ],
      "source": "osm",
      "osmType": "node",
      "osmId": 3616071498
    },
    {
      "id": "osm-node-370350598",
      "label": "Feuerwehr 370350598",
      "address": "OSM-POI",
      "lat": 49.1723946,
      "lng": 12.204141,
      "categories": [
        "fire-station"
      ],
      "source": "osm",
      "osmType": "node",
      "osmId": 370350598
    },
    {
      "id": "osm-node-606888913",
      "label": "Feuerwehr 606888913",
      "address": "OSM-POI",
      "lat": 49.1468594,
      "lng": 11.9975293,
      "categories": [
        "fire-station"
      ],
      "source": "osm",
      "osmType": "node",
      "osmId": 606888913
    },
    {
      "id": "osm-node-2379272688",
      "label": "Feuerwehr Adlmannstein",
      "address": "OSM-POI",
      "lat": 49.0957208,
      "lng": 12.2679328,
      "categories": [
        "fire-station"
      ],
      "source": "osm",
      "osmType": "node",
      "osmId": 2379272688
    },
    {
      "id": "osm-way-30127403",
      "label": "Feuerwehr Altenhann",
      "address": "Johannisbreite 2, Altenthann",
      "lat": 49.0909577,
      "lng": 12.3039863,
      "categories": [
        "fire-station"
      ],
      "source": "osm",
      "osmType": "way",
      "osmId": 30127403
    },
    {
      "id": "osm-node-11123389352",
      "label": "Feuerwehr Dinau",
      "address": "OSM-POI",
      "lat": 49.1638335,
      "lng": 11.8931712,
      "categories": [
        "fire-station"
      ],
      "source": "osm",
      "osmType": "node",
      "osmId": 11123389352
    },
    {
      "id": "osm-way-29139560",
      "label": "Feuerwehr Eggmühl",
      "address": "Bahnhofstraße 11, Schierling",
      "lat": 48.8366309,
      "lng": 12.1820148,
      "categories": [
        "fire-station"
      ],
      "source": "osm",
      "osmType": "way",
      "osmId": 29139560
    },
    {
      "id": "osm-node-1043268457",
      "label": "Feuerwehr Sarching",
      "address": "OSM-POI",
      "lat": 49.0139524,
      "lng": 12.2345221,
      "categories": [
        "fire-station"
      ],
      "source": "osm",
      "osmType": "node",
      "osmId": 1043268457
    },
    {
      "id": "osm-way-135282272",
      "label": "FF Aufhausen",
      "address": "Hofmark 6, Aufhausen",
      "lat": 48.8733686,
      "lng": 12.2838446,
      "categories": [
        "fire-station"
      ],
      "source": "osm",
      "osmType": "way",
      "osmId": 135282272
    },
    {
      "id": "osm-way-129614266",
      "label": "FF Brennberg",
      "address": "Johannisstraße 6",
      "lat": 49.0698368,
      "lng": 12.3948701,
      "categories": [
        "fire-station"
      ],
      "source": "osm",
      "osmType": "way",
      "osmId": 129614266
    },
    {
      "id": "osm-node-1648892694",
      "label": "FF Brunn",
      "address": "OSM-POI",
      "lat": 49.0957524,
      "lng": 11.8979798,
      "categories": [
        "fire-station"
      ],
      "source": "osm",
      "osmType": "node",
      "osmId": 1648892694
    },
    {
      "id": "osm-way-29103269",
      "label": "FF Frankenberg",
      "address": "Frankenberg 11a, Brennberg",
      "lat": 49.0880281,
      "lng": 12.3969829,
      "categories": [
        "fire-station"
      ],
      "source": "osm",
      "osmType": "way",
      "osmId": 29103269
    },
    {
      "id": "osm-way-134938109",
      "label": "FF Hellkofen",
      "address": "OSM-POI",
      "lat": 48.8930784,
      "lng": 12.3006874,
      "categories": [
        "fire-station"
      ],
      "source": "osm",
      "osmType": "way",
      "osmId": 134938109
    },
    {
      "id": "osm-node-1738625090",
      "label": "FF Pettenreuth",
      "address": "OSM-POI",
      "lat": 49.1311119,
      "lng": 12.2552411,
      "categories": [
        "fire-station"
      ],
      "source": "osm",
      "osmType": "node",
      "osmId": 1738625090
    },
    {
      "id": "osm-way-135155522",
      "label": "FF Petzkofen",
      "address": "OSM-POI",
      "lat": 48.8780113,
      "lng": 12.28859,
      "categories": [
        "fire-station"
      ],
      "source": "osm",
      "osmType": "way",
      "osmId": 135155522
    },
    {
      "id": "osm-node-624619752",
      "label": "FF Regendorf",
      "address": "OSM-POI",
      "lat": 49.0905623,
      "lng": 12.1062522,
      "categories": [
        "fire-station"
      ],
      "source": "osm",
      "osmType": "node",
      "osmId": 624619752
    },
    {
      "id": "osm-way-134933361",
      "label": "FF Triftlfing",
      "address": "Ortsstraße 24",
      "lat": 48.8860428,
      "lng": 12.2629361,
      "categories": [
        "fire-station"
      ],
      "source": "osm",
      "osmType": "way",
      "osmId": 134933361
    },
    {
      "id": "osm-way-151940819",
      "label": "FF Undorf / Musikerheim",
      "address": "Mühlweg 3, Nittendorf",
      "lat": 49.0257408,
      "lng": 11.933118,
      "categories": [
        "fire-station"
      ],
      "source": "osm",
      "osmType": "way",
      "osmId": 151940819
    },
    {
      "id": "osm-node-1800827177",
      "label": "FF Wischenhofen",
      "address": "OSM-POI",
      "lat": 49.1159757,
      "lng": 11.9184061,
      "categories": [
        "fire-station"
      ],
      "source": "osm",
      "osmType": "node",
      "osmId": 1800827177
    },
    {
      "id": "osm-way-151197825",
      "label": "FFW Eichhofen",
      "address": "OSM-POI",
      "lat": 49.0136362,
      "lng": 11.9275729,
      "categories": [
        "fire-station"
      ],
      "source": "osm",
      "osmType": "way",
      "osmId": 151197825
    },
    {
      "id": "osm-way-134811324",
      "label": "FFW Gailsbach",
      "address": "OSM-POI",
      "lat": 48.8858363,
      "lng": 12.2327071,
      "categories": [
        "fire-station"
      ],
      "source": "osm",
      "osmType": "way",
      "osmId": 134811324
    },